Timestamp,roll,pitch,heading,rollRate,pitchRate,yawRate,groundSpeed,airSpeed,airSpeedSetpoint,climbRate,altitudeRelative,altitudeAMSL,altitudeAboveTerr,altitudeTuning,altitudeTuningSetpoint,xTrackError,rangeFinderDist,flightDistance,flightTime,distanceToHome,timeToHome,missionItemIndex,headingToNextWP,distanceToNextWP,headingToHome,distanceToGCS,throttlePct,imuTemp,hobbs,battery0.id,battery0.batteryFunction,battery0.batteryType,battery0.voltage,battery0.current,battery0.mahConsumed,battery0.temperature,battery0.percentRemaining,battery0.timeRemaining,battery0.timeRemainingStr,battery0.chargeState,battery0.instantPower,battery1.id,battery1.batteryFunction,battery1.batteryType,battery1.voltage,battery1.current,battery1.mahConsumed,battery1.temperature,battery1.percentRemaining,battery1.timeRemaining,battery1.timeRemainingStr,battery1.chargeState,battery1.instantPower,clock.currentTime,clock.currentUTCTime,clock.currentDate,distanceSensor.rotationNone,distanceSensor.rotationYaw45,distanceSensor.rotationYaw90,distanceSensor.rotationYaw135,distanceSensor.rotationYaw180,distanceSensor.rotationYaw225,distanceSensor.rotationYaw270,distanceSensor.rotationYaw315,distanceSensor.rotationPitch90,distanceSensor.rotationPitch270,distanceSensor.minDistance,distanceSensor.maxDistance,efi.health,efi.ecuIndex,efi.rpm,efi.fuelConsumed,efi.fuelFlow,efi.engineLoad,efi.sparkTime,efi.throttlePos,efi.baroPress,efi.intakePress,efi.intakeTemp,efi.cylinderTemp,efi.ignTime,efi.exGasTemp,efi.injTime,efi.throttleOut,efi.ptComp,escStatus.index,escStatus.rpm1,escStatus.rpm2,escStatus.rpm3,escStatus.rpm4,escStatus.current1,escStatus.current2,escStatus.current3,escStatus.current4,escStatus.voltage1,escStatus.voltage2,escStatus.voltage3,escStatus.voltage4,estimatorStatus.goodAttitudeEsimate,estimatorStatus.goodHorizVelEstimate,estimatorStatus.goodVertVelEstimate,estimatorStatus.goodHorizPosRelEstimate,estimatorStatus.goodHorizPosAbsEstimate,estimatorStatus.goodVertPosAbsEstimate,estimatorStatus.goodVertPosAGLEstimate,estimatorStatus.goodConstPosModeEstimate,estimatorStatus.goodPredHorizPosRelEstimate,estimatorStatus.goodPredHorizPosAbsEstimate,estimatorStatus.gpsGlitch,estimatorStatus.accelError,estimatorStatus.velRatio,estimatorStatus.horizPosRatio,estimatorStatus.vertPosRatio,estimatorStatus.magRatio,estimatorStatus.haglRatio,estimatorStatus.tasRatio,estimatorStatus.horizPosAccuracy,estimatorStatus.vertPosAccuracy,generator.status,generator.genSpeed,generator.batteryCurrent,generator.loadCurrent,generator.powerGenerated,generator.busVoltage,generator.batCurrentSetpoint,generator.rectifierTemp,generator.genTemp,generator.runtime,generator.timeMaintenance,gps.lat,gps.lon,gps.mgrs,gps.hdop,gps.vdop,gps.courseOverGround,gps.lock,gps.count,gps2.lat,gps2.lon,gps2.mgrs,gps2.hdop,gps2.vdop,gps2.courseOverGround,gps2.lock,gps2.count,hygrometer.temperature,hygrometer.humidity,hygrometer.hygrometerid,localPosition.x,localPosition.y,localPosition.z,localPosition.vx,localPosition.vy,localPosition.vz,localPositionSetpoint.x,localPositionSetpoint.y,localPositionSetpoint.z,localPositionSetpoint.vx,localPositionSetpoint.vy,localPositionSetpoint.vz,setpoint.roll,setpoint.pitch,setpoint.yaw,setpoint.rollRate,setpoint.pitchRate,setpoint.yawRate,temperature.temperature1,temperature.temperature2,temperature.temperature3,terrain.blocksPending,terrain.blocksLoaded,vibration.xAxis,vibration.yAxis,vibration.zAxis,vibration.clipCount1,vibration.clipCount2,vibration.clipCount3,wind.direction,wind.speed,wind.verticalSpeed
2024-07-16 08:38:18.880,-2.5,2.9,313,0,0,0.1,0,0,0,0,0.3,68.4,61.9,0.354,0,0,0,0,00:00:00,--.--,0,1,--.--,0,--.--,--.--,0,0,0002:53:13,0,1,1,25.16,-0.17,0,33,98,1,00H:00M:01S,1,-4.28,1,1,1,25.15,0.17,5,--.--,99,--.--,--:--:--,1,4.28,08:38:18,01:38:18,16/07/2024,--.--,--.--,--.--,--.--,--.--,--.--,--.--,--.--,--.--,--.--,--.--,--.--,0,--.--,--.--,--.--,--.--,--.--,--.--,--.--,--.--,--.--,--.--,--.--,--.--,--.--,--.--,--.--,--.--,0,0,0,0,0,0,0,0,0,0.4,0.4,0.4,0.4,true,false,true,false,false,true,true,true,false,false,false,false,--.--,--.--,0.01,0,--.--,0,0.01,0.28,0,0,--.--,--.--,--.--,--.--,--.--,0,0,0,0,15.9803268,108.2617985,49PBT 06911 68688,2.8,3.4,0,3,4,--.--,--.--,,--.--,--.--,--.--,0,0,--.--,--.--,0,0,0,-0.3,0,0,0,--.--,--.--,--.--,--.--,--.--,--.--,0,0,313.7,7.9,-8.8,-0.3,31.31,--.--,--.--,0,0,0,0,0,0,0,0,--.--,--.--,--.--
2024-07-16 08:38:19.879,-2.5,2.9,313,0,0,0,0,0,0,0,0.3,68,61.9,0.304,0,0,0,0,00:00:00,--.--,0,1,--.--,0,--.--,--.--,0,0,0002:53:13,0,1,1,25.16,-0.17,0,33,98,1,00H:00M:01S,1,-4.28,1,1,1,25.15,0.17,5,--.--,99,--.--,--:--:--,1,4.28,08:38:19,01:38:19,16/07/2024,--.--,--.--,--.--,--.--,--.--,--.--,--.--,--.--,--.--,--.--,--.--,--.--,0,--.--,--.--,--.--,--.--,--.--,--.--,--.--,--.--,--.--,--.--,--.--,--.--,--.--,--.--,--.--,--.--,0,0,0,0,0,0,0,0,0,0.4,0.4,0.4,0.4,true,false,true,false,false,true,true,true,false,false,false,false,--.--,--.--,0.01,0,--.--,0,0.01,0.28,0,0,--.--,--.--,--.--,--.--,--.--,0,0,0,0,15.980327,108.2618024,49PBT 06911 68688,2.8,3.4,0,3,4,--.--,--.--,,--.--,--.--,--.--,0,0,--.--,--.--,0,0,0,-0.3,0,0,0,--.--,--.--,--.--,--.--,--.--,--.--,0,0,313.7,7.9,-8.8,-0.3,31.39,--.--,--.--,0,0,0,0,0,0,0,0,--.--,--.--,--.--
2024-07-16 08:38:20.879,-2.5,2.9,313,0,0,0,0,0,0,0,0.3,68,61.9,0.211,0,0,0,0,00:00:00,--.--,0,1,--.--,0,--.--,--.--,0,0,0002:53:13,0,1,1,25.16,-0.17,0,33,98,1,00H:00M:01S,1,-4.28,1,1,1,25.15,0.17,5,--.--,99,--.--,--:--:--,1,4.28,08:38:20,01:38:20,16/07/2024,--.--,--.--,--.--,--.--,--.--,--.--,--.--,--.--,--.--,--.--,--.--,--.--,0,--.--,--.--,--.--,--.--,--.--,--.--,--.--,--.--,--.--,--.--,--.--,--.--,--.--,--.--,--.--,--.--,0,0,0,0,0,0,0,0,0,0.4,0.4,0.4,0.4,true,false,true,false,false,true,true,true,false,false,false,false,--.--,--.--,0.01,0,--.--,0,0.01,0.28,0,0,--.--,--.--,--.--,--.--,--.--,0,0,0,0,15.9803271,108.2618063,49PBT 06912 68688,2.8,3.4,0,3,4,--.--,--.--,,--.--,--.--,--.--,0,0,--.--,--.--,0,0,0,-0.3,0,0,0,--.--,--.--,--.--,--.--,--.--,--.--,0,0,313.7,7.9,-8.8,-0.3,31.39,--.--,--.--,0,0,0,0,0,0,0,0,--.--,--.--,--.--
2024-07-16 08:38:21.880,-2.5,2.9,313,0,0,0,0,0,0,0,0.3,68,62,0.185,0,0,0,0,00:00:00,--.--,0,1,--.--,0,--.--,--.--,0,0,0002:53:13,0,1,1,25.16,-0.17,0,33,98,1,00H:00M:01S,1,-4.28,1,1,1,25.15,0.17,5,--.--,99,--.--,--:--:--,1,4.28,08:38:21,01:38:21,16/07/2024,--.--,--.--,--.--,--.--,--.--,--.--,--.--,--.--,--.--,--.--,--.--,--.--,0,--.--,--.--,--.--,--.--,--.--,--.--,--.--,--.--,--.--,--.--,--.--,--.--,--.--,--.--,--.--,--.--,0,0,0,0,0,0,0,0,0,0.4,0.4,0.4,0.4,true,false,true,false,false,true,true,true,false,false,false,false,--.--,--.--,0.01,0,--.--,0,0.01,0.28,0,0,--.--,--.--,--.--,--.--,--.--,0,0,0,0,15.9803266,108.261809,49PBT 06912 68688,2.8,3.4,0,3,4,--.--,--.--,,--.--,--.--,--.--,0,0,--.--,--.--,0,0,0,-0.3,0,0,0,--.--,--.--,--.--,--.--,--.--,--.--,0,0,313.7,7.9,-8.8,-0.3,31.39,--.--,--.--,0,0,0,0,0,0,0,0,--.--,--.--,--.--
2024-07-16 08:38:22.880,-2.5,2.9,313,0,0,0,0,0,0,0,0.4,68.2,62,0.56,0,0,0,0,00:00:00,--.--,0,1,--.--,0,--.--,--.--,0,0,0002:53:13,0,1,1,25.16,-0.15,0,33,98,1,00H:00M:01S,1,-3.77,1,1,1,25.15,0.17,5,--.--,99,--.--,--:--:--,1,4.28,08:38:22,01:38:22,16/07/2024,--.--,--.--,--.--,--.--,--.--,--.--,--.--,--.--,--.--,--.--,--.--,--.--,0,--.--,--.--,--.--,--.--,--.--,--.--,--.--,--.--,--.--,--.--,--.--,--.--,--.--,--.--,--.--,--.--,0,0,0,0,0,0,0,0,0,0.4,0.4,0.4,0.4,true,false,true,false,false,true,true,true,false,false,false,false,--.--,--.--,0.01,0,--.--,0,0.01,0.28,0,0,--.--,--.--,--.--,--.--,--.--,0,0,0,0,15.9803244,108.2618124,49PBT 06913 68688,2.8,3.4,0,3,4,--.--,--.--,,--.--,--.--,--.--,0,0,--.--,--.--,0,0,0,-0.4,0,0,0,--.--,--.--,--.--,--.--,--.--,--.--,0,0,313.7,7.9,-8.8,-0.3,31.46,--.--,--.--,0,0,0,0,0,0,0,0,--.--,--.--,--.--
2024-07-16 08:38:23.880,-2.5,2.9,313,0,0,0,0,0,0,0,0.4,68.2,62,0.415,0,0,0,0,00:00:00,--.--,0,1,--.--,0,--.--,--.--,0,0,0002:53:13,0,1,1,25.16,-0.15,0,33,98,1,00H:00M:01S,1,-3.77,1,1,1,25.15,0.17,5,--.--,99,--.--,--:--:--,1,4.28,08:38:23,01:38:23,16/07/2024,--.--,--.--,--.--,--.--,--.--,--.--,--.--,--.--,--.--,--.--,--.--,--.--,0,--.--,--.--,--.--,--.--,--.--,--.--,--.--,--.--,--.--,--.--,--.--,--.--,--.--,--.--,--.--,--.--,0,0,0,0,0,0,0,0,0,0.4,0.4,0.4,0.4,true,false,true,false,false,true,true,true,false,false,false,false,--.--,--.--,0.01,0,--.--,0,0.01,0.28,0,0,--.--,--.--,--.--,--.--,--.--,0,0,0,0,15.9803228,108.2618135,49PBT 06913 68687,2.8,3.4,0,3,4,--.--,--.--,,--.--,--.--,--.--,0,0,--.--,--.--,0,0,0,-0.4,0,0,0,--.--,--.--,--.--,--.--,--.--,--.--,0,0,313.7,7.9,-8.8,-0.3,31.46,--.--,--.--,0,0,0,0,0,0,0,0,--.--,--.--,--.--
2024-07-16 08:38:24.880,-2.5,2.9,313,0,0,0,0,0,0,0,0.4,68.3,62,0.293,0,0,0,0,00:00:00,--.--,0,1,--.--,0,--.--,--.--,0,0,0002:53:13,0,1,1,25.16,-0.15,0,33,98,1,00H:00M:01S,1,-3.77,1,1,1,25.15,0.17,5,--.--,99,--.--,--:--:--,1,4.28,08:38:24,01:38:24,16/07/2024,--.--,--.--,--.--,--.--,--.--,--.--,--.--,--.--,--.--,--.--,--.--,--.--,0,--.--,--.--,--.--,--.--,--.--,--.--,--.--,--.--,--.--,--.--,--.--,--.--,--.--,--.--,--.--,--.--,0,0,0,0,0,0,0,0,0,0.4,0.4,0.4,0.4,true,false,true,false,false,true,true,true,false,false,false,false,--.--,--.--,0.01,0,--.--,0,0.01,0.28,0,0,--.--,--.--,--.--,--.--,--.--,0,0,0,0,15.9803189,108.2618161,49PBT 06913 68687,2.8,3.4,0,3,4,--.--,--.--,,--.--,--.--,--.--,0,0,--.--,--.--,0,0,0,-0.4,0,0,0,--.--,--.--,--.--,--.--,--.--,--.--,0,0,313.7,7.9,-8.8,-0.3,31.53,--.--,--.--,0,0,0,0,0,0,0,0,--.--,--.--,--.--
2024-07-16 08:38:25.880,-2.5,2.9,313,0,0,0,0,0,0,0,0.4,68.3,62,0.185,0,0,0,0,00:00:00,--.--,0,1,--.--,0,--.--,--.--,0,0,0002:53:13,0,1,1,25.16,-0.15,0,33,98,1,00H:00M:01S,1,-3.77,1,1,1,25.15,0.17,5,--.--,99,--.--,--:--:--,1,4.28,08:38:25,01:38:25,16/07/2024,--.--,--.--,--.--,--.--,--.--,--.--,--.--,--.--,--.--,--.--,--.--,--.--,0,--.--,--.--,--.--,--.--,--.--,--.--,--.--,--.--,--.--,--.--,--.--,--.--,--.--,--.--,--.--,--.--,0,0,0,0,0,0,0,0,0,0.4,0.4,0.4,0.4,true,false,true,false,false,true,true,true,false,false,false,false,--.--,--.--,0.01,0,--.--,0,0.01,0.28,0,0,--.--,--.--,--.--,--.--,--.--,0,0,0,0,15.9803171,108.2618166,49PBT 06913 68687,2.8,3.4,0,3,4,--.--,--.--,,--.--,--.--,--.--,0,0,--.--,--.--,0,0,0,-0.4,0,0,0,--.--,--.--,--.--,--.--,--.--,--.--,0,0,313.7,7.9,-8.8,-0.3,31.53,--.--,--.--,0,0,0,0,0,0,0,0,--.--,--.--,--.--
2024-07-16 08:38:26.880,-2.5,2.9,313,0,0,0,0,0,0,0,0.4,68.3,62,0.528,0,0,0,0,00:00:00,--.--,0,1,--.--,0,--.--,--.--,0,0,0002:53:13,0,1,1,25.16,-0.15,0,33,98,1,00H:00M:01S,1,-3.77,1,1,1,25.15,0.17,5,--.--,99,--.--,--:--:--,1,4.28,08:38:26,01:38:26,16/07/2024,--.--,--.--,--.--,--.--,--.--,--.--,--.--,--.--,--.--,--.--,--.--,--.--,0,--.--,--.--,--.--,--.--,--.--,--.--,--.--,--.--,--.--,--.--,--.--,--.--,--.--,--.--,--.--,--.--,0,0,0,0,0,0,0,0,0,0.4,0.4,0.4,0.4,true,false,true,false,false,true,true,true,false,false,false,false,--.--,--.--,0.01,0,--.--,0,0.01,0.28,0,0,--.--,--.--,--.--,--.--,--.--,0,0,0,0,15.9803146,108.2618155,49PBT 06913 68687,2.5,2.7,0,3,5,--.--,--.--,,--.--,--.--,--.--,0,0,--.--,--.--,0,0,0,-0.4,0,0,0,--.--,--.--,--.--,--.--,--.--,--.--,0,0,313.7,7.9,-8.8,-0.3,31.53,--.--,--.--,0,0,0,0,0,0,0,0,--.--,--.--,--.--
2024-07-16 08:38:27.880,-2.5,2.9,313,0,0,0,0,0,0,0,0.4,68,62,0.203,0,0,0,0,00:00:00,--.--,0,1,--.--,0,--.--,--.--,0,0,0002:53:13,0,1,1,25.16,-0.17,1,33,98,1,00H:00M:01S,1,-4.28,1,1,1,25.15,0.17,5,--.--,99,--.--,--:--:--,1,4.27,08:38:27,01:38:27,16/07/2024,--.--,--.--,--.--,--.--,--.--,--.--,--.--,--.--,--.--,--.--,--.--,--.--,0,--.--,--.--,--.--,--.--,--.--,--.--,--.--,--.--,--.--,--.--,--.--,--.--,--.--,--.--,--.--,--.--,0,0,0,0,0,0,0,0,0,0.4,0.4,0.4,0.4,true,false,true,false,false,true,true,true,false,false,false,false,--.--,--.--,0.01,0,--.--,0,0.01,0.28,0,0,--.--,--.--,--.--,--.--,--.--,0,0,0,0,15.9803109,108.2618135,49PBT 06913 68686,2.5,2.7,0,3,5,--.--,--.--,,--.--,--.--,--.--,0,0,--.--,--.--,0,0,0,-0.4,0,0,0,--.--,--.--,--.--,--.--,--.--,--.--,0,0,313.7,7.9,-8.8,-0.3,31.61,--.--,--.--,0,0,0,0,0,0,0,0,--.--,--.--,--.--
2024-07-16 08:38:28.880,-2.5,2.9,313,0,0,0,0,0,0,0,0.4,68,62,0.151,0,0,0,0,00:00:00,--.--,0,1,--.--,0,--.--,--.--,0,0,0002:53:13,0,1,1,25.16,-0.17,1,33,98,1,00H:00M:01S,1,-4.28,1,1,1,25.15,0.17,5,--.--,99,--.--,--:--:--,1,4.27,08:38:28,01:38:28,16/07/2024,--.--,--.--,--.--,--.--,--.--,--.--,--.--,--.--,--.--,--.--,--.--,--.--,0,--.--,--.--,--.--,--.--,--.--,--.--,--.--,--.--,--.--,--.--,--.--,--.--,--.--,--.--,--.--,--.--,0,0,0,0,0,0,0,0,0,0.4,0.4,0.4,0.4,true,false,true,false,false,true,true,true,false,false,false,false,--.--,--.--,0.01,0,--.--,0,0.01,0.28,0,0,--.--,--.--,--.--,--.--,--.--,0,0,0,0,15.9803087,108.2618129,49PBT 06913 68686,2.5,2.7,0,3,5,--.--,--.--,,--.--,--.--,--.--,0,0,--.--,--.--,0,0,0,-0.4,0,0,0,--.--,--.--,--.--,--.--,--.--,--.--,0,0,313.7,7.9,-8.8,-0.3,31.61,--.--,--.--,0,0,0,0,0,0,0,0,--.--,--.--,--.--
2024-07-16 08:38:29.879,-2.5,2.9,313,0,0,0,0,0,0,0,0.3,68.1,62.1,0.193,0,0,0,0,00:00:00,--.--,0,1,--.--,0,--.--,--.--,0,0,0002:53:13,0,1,1,25.16,-0.17,1,33,98,1,00H:00M:01S,1,-4.28,1,1,1,25.15,0.17,5,--.--,99,--.--,--:--:--,1,4.27,08:38:29,01:38:29,16/07/2024,--.--,--.--,--.--,--.--,--.--,--.--,--.--,--.--,--.--,--.--,--.--,--.--,0,--.--,--.--,--.--,--.--,--.--,--.--,--.--,--.--,--.--,--.--,--.--,--.--,--.--,--.--,--.--,--.--,0,0,0,0,0,0,0,0,0,0.4,0.4,0.4,0.4,true,false,true,false,false,true,true,true,false,false,false,false,--.--,--.--,0.01,0,--.--,0,0.01,0.28,0,0,--.--,--.--,--.--,--.--,--.--,0,0,0,0,15.9803062,108.2618142,49PBT 06913 68686,2.5,2.7,0,3,5,--.--,--.--,,--.--,--.--,--.--,0,0,--.--,--.--,0,0,0,-0.3,0,0,0,--.--,--.--,--.--,--.--,--.--,--.--,0,0,313.7,7.9,-8.8,-0.3,31.68,--.--,--.--,0,0,0,0,0,0,0,0,--.--,--.--,--.--
2024-07-16 08:38:30.880,-2.5,2.9,313,0,0,0,0,0,0,0,0.3,68.1,62.1,0.24,0,0,0,0,00:00:00,--.--,0,1,--.--,0,--.--,--.--,0,0,0002:53:13,0,1,1,25.16,-0.17,1,33,98,1,00H:00M:01S,1,-4.28,1,1,1,25.15,0.17,5,--.--,99,--.--,--:--:--,1,4.27,08:38:30,01:38:30,16/07/2024,--.--,--.--,--.--,--.--,--.--,--.--,--.--,--.--,--.--,--.--,--.--,--.--,0,--.--,--.--,--.--,--.--,--.--,--.--,--.--,--.--,--.--,--.--,--.--,--.--,--.--,--.--,--.--,--.--,0,0,0,0,0,0,0,0,0,0.4,0.4,0.4,0.4,true,false,true,false,false,true,true,true,false,false,false,false,--.--,--.--,0.01,0,--.--,0,0.01,0.28,0,0,--.--,--.--,--.--,--.--,--.--,0,0,0,0,15.9803039,108.2618142,49PBT 06913 68685,2.5,2.7,0,3,5,--.--,--.--,,--.--,--.--,--.--,0,0,--.--,--.--,0,0,0,-0.3,0,0,0,--.--,--.--,--.--,--.--,--.--,--.--,0,0,313.7,7.9,-8.8,-0.3,31.68,--.--,--.--,0,0,0,0,0,0,0,0,--.--,--.--,--.--
2024-07-16 08:38:31.880,-2.5,2.9,313,0,0,0,0,0,0,0,0.3,68.2,62.1,0.021,0,0,0,0,00:00:00,--.--,0,1,--.--,0,--.--,--.--,0,0,0002:53:13,0,1,1,25.16,-0.17,1,33,98,1,00H:00M:01S,1,-4.28,1,1,1,25.15,0.17,5,--.--,99,--.--,--:--:--,1,4.27,08:38:31,01:38:31,16/07/2024,--.--,--.--,--.--,--.--,--.--,--.--,--.--,--.--,--.--,--.--,--.--,--.--,0,--.--,--.--,--.--,--.--,--.--,--.--,--.--,--.--,--.--,--.--,--.--,--.--,--.--,--.--,--.--,--.--,0,0,0,0,0,0,0,0,0,0.4,0.4,0.4,0.4,true,false,true,false,false,true,true,true,false,false,false,false,--.--,--.--,0.01,0,--.--,0,0.01,0.28,0,0,--.--,--.--,--.--,--.--,--.--,0,0,0,0,15.9803017,108.2618154,49PBT 06913 68685,2.5,2.7,0,3,5,--.--,--.--,,--.--,--.--,--.--,0,0,--.--,--.--,0,0,0,-0.3,0,0,0,--.--,--.--,--.--,--.--,--.--,--.--,0,0,313.7,7.9,-8.8,-0.3,31.75,--.--,--.--,0,0,0,0,0,0,0,0,--.--,--.--,--.--
2024-07-16 08:38:32.880,-2.5,2.9,313,0,0,0,0,0,0,0,0.3,68.2,62.1,0.233,0,0,0,0,00:00:00,--.--,0,1,--.--,0,--.--,--.--,0,0,0002:53:13,0,1,1,25.16,-0.17,1,33,98,1,00H:00M:01S,1,-4.28,1,1,1,25.15,0.17,5,--.--,99,--.--,--:--:--,1,4.27,08:38:32,01:38:32,16/07/2024,--.--,--.--,--.--,--.--,--.--,--.--,--.--,--.--,--.--,--.--,--.--,--.--,0,--.--,--.--,--.--,--.--,--.--,--.--,--.--,--.--,--.--,--.--,--.--,--.--,--.--,--.--,--.--,--.--,0,0,0,0,0,0,0,0,0,0.4,0.4,0.4,0.4,true,false,true,false,false,true,true,true,false,false,false,false,--.--,--.--,0,0,--.--,0,0.01,0.29,0,0,--.--,--.--,--.--,--.--,--.--,0,0,0,0,15.9802995,108.2618155,49PBT 06913 68685,2.5,2.7,0,3,5,--.--,--.--,,--.--,--.--,--.--,0,0,--.--,--.--,0,0,0,-0.3,0,0,0,--.--,--.--,--.--,--.--,--.--,--.--,0,0,313.7,7.9,-8.8,-0.3,31.75,--.--,--.--,0,0,0,0,0,0,0,0,--.--,--.--,--.--
2024-07-16 08:38:33.879,-2.5,2.9,313,0,0,0,0,0,0,0,0.3,68.2,62.1,0.367,0,0,0,0,00:00:00,--.--,0,1,--.--,0,--.--,--.--,0,0,0002:53:13,0,1,1,25.16,-0.17,1,33,98,1,00H:00M:01S,1,-4.28,1,1,1,25.15,0.17,5,--.--,99,--.--,--:--:--,1,4.27,08:38:33,01:38:33,16/07/2024,--.--,--.--,--.--,--.--,--.--,--.--,--.--,--.--,--.--,--.--,--.--,--.--,0,--.--,--.--,--.--,--.--,--.--,--.--,--.--,--.--,--.--,--.--,--.--,--.--,--.--,--.--,--.--,--.--,0,0,0,0,0,0,0,0,0,0.4,0.4,0.4,0.4,true,false,true,false,false,true,true,true,false,false,false,false,--.--,--.--,0,0,--.--,0,0.01,0.29,0,0,--.--,--.--,--.--,--.--,--.--,0,0,0,0,15.9802971,108.2618152,49PBT 06913 68685,2.5,2.7,0,3,5,--.--,--.--,,--.--,--.--,--.--,0,0,--.--,--.--,0,0,0,-0.3,0,0,0,--.--,--.--,--.--,--.--,--.--,--.--,0,0,313.7,7.9,-8.8,-0.3,31.75,--.--,--.--,0,0,0,0,0,0,0,0,--.--,--.--,--.--
2024-07-16 08:38:34.880,-2.5,2.9,313,0,0,0,0,0,0,0,0.3,68.1,62.1,0.243,0,0,0,0,00:00:00,0,0,1,--.--,0,--.--,--.--,0,0,0002:53:13,0,1,1,25.16,-0.17,1,33,98,1,00H:00M:01S,1,-4.28,1,1,1,25.15,0.17,5,--.--,99,--.--,--:--:--,1,4.27,08:38:34,01:38:34,16/07/2024,--.--,--.--,--.--,--.--,--.--,--.--,--.--,--.--,--.--,--.--,--.--,--.--,0,--.--,--.--,--.--,--.--,--.--,--.--,--.--,--.--,--.--,--.--,--.--,--.--,--.--,--.--,--.--,--.--,0,0,0,0,0,0,0,0,0,0.4,0.4,0.4,0.4,true,false,true,false,false,true,true,true,false,false,false,false,--.--,--.--,0,0,--.--,0,0.01,0.29,0,0,--.--,--.--,--.--,--.--,--.--,0,0,0,0,15.9802948,108.2618147,49PBT 06913 68684,2.5,2.7,0,3,5,--.--,--.--,,--.--,--.--,--.--,0,0,--.--,--.--,0,0,0,-0.3,0,0,0,--.--,--.--,--.--,--.--,--.--,--.--,0,0,313.7,7.9,-8.8,-0.3,31.82,--.--,--.--,0,0,0,0,0,0,0,0,--.--,--.--,--.--
2024-07-16 08:38:35.880,-2.5,2.9,313,0,0.1,0,0,0,0,0,0.3,68.1,62.1,0.322,0,0,0,0,00:00:00,0.3,34.1,1,--.--,0,--.--,--.--,0,0,0002:53:13,0,1,1,25.16,-0.17,1,33,98,1,00H:00M:01S,1,-4.28,1,1,1,25.15,0.17,5,--.--,99,--.--,--:--:--,1,4.27,08:38:35,01:38:35,16/07/2024,--.--,--.--,--.--,--.--,--.--,--.--,--.--,--.--,--.--,--.--,--.--,--.--,0,--.--,--.--,--.--,--.--,--.--,--.--,--.--,--.--,--.--,--.--,--.--,--.--,--.--,--.--,--.--,--.--,0,0,0,0,0,0,0,0,0,0.4,0.4,0.4,0.4,true,false,true,false,false,true,true,true,false,false,false,false,--.--,--.--,0,0,--.--,0,0.01,0.29,0,0,--.--,--.--,--.--,--.--,--.--,0,0,0,0,15.9802927,108.2618144,49PBT 06913 68684,2.5,2.7,0,3,5,--.--,--.--,,--.--,--.--,--.--,0,0,--.--,--.--,0,0,0,-0.3,0,0,0,--.--,--.--,--.--,--.--,--.--,--.--,0,0,313.7,7.9,-8.8,-0.3,31.82,--.--,--.--,0,0,0,0,0,0,0,0,--.--,--.--,--.--
2024-07-16 08:38:36.879,-2.5,2.9,313,0,0,0,0,0,0,0,0.3,68.2,62.1,0.214,0,0,0,0,00:00:00,0.5,111.9,1,--.--,0,--.--,--.--,0,0,0002:53:13,0,1,1,25.16,-0.17,1,33,98,1,00H:00M:01S,1,-4.28,1,1,1,25.15,0.17,5,--.--,99,--.--,--:--:--,1,4.27,08:38:36,01:38:36,16/07/2024,--.--,--.--,--.--,--.--,--.--,--.--,--.--,--.--,--.--,--.--,--.--,--.--,0,--.--,--.--,--.--,--.--,--.--,--.--,--.--,--.--,--.--,--.--,--.--,--.--,--.--,--.--,--.--,--.--,0,0,0,0,0,0,0,0,0,0.4,0.4,0.4,0.4,true,false,true,false,false,true,true,true,false,false,false,false,--.--,--.--,0,0,--.--,0,0.01,0.29,0,0,--.--,--.--,--.--,--.--,--.--,0,0,0,0,15.9802907,108.2618139,49PBT 06913 68684,2.5,2.7,0,3,5,--.--,--.--,,--.--,--.--,--.--,0,0,--.--,--.--,0,0,0,-0.3,0,0,0,--.--,--.--,--.--,--.--,--.--,--.--,0,0,313.7,7.9,-8.8,-0.3,31.91,--.--,--.--,0,0,0,0,0,0,0,0,--.--,--.--,--.--
2024-07-16 08:38:37.880,-2.5,2.9,313,0,0,0,0,0,0,0,0.3,68.2,62.2,0.328,0,0,0,0,00:00:00,0.7,176.4,1,--.--,0,--.--,--.--,0,0,0002:53:13,0,1,1,25.15,-0.17,1,33,98,1,00H:00M:01S,1,-4.28,1,1,1,25.14,0.17,6,--.--,99,--.--,--:--:--,1,4.27,08:38:37,01:38:37,16/07/2024,--.--,--.--,--.--,--.--,--.--,--.--,--.--,--.--,--.--,--.--,--.--,--.--,0,--.--,--.--,--.--,--.--,--.--,--.--,--.--,--.--,--.--,--.--,--.--,--.--,--.--,--.--,--.--,--.--,0,0,0,0,0,0,0,0,0,0.4,0.4,0.4,0.4,true,false,true,false,false,true,true,true,false,false,false,false,--.--,--.--,0,0,--.--,0,0.02,0.28,0,0,--.--,--.--,--.--,--.--,--.--,0,0,0,0,15.9802889,108.2618135,49PBT 06913 68684,2.5,2.7,0,3,5,--.--,--.--,,--.--,--.--,--.--,0,0,--.--,--.--,0,0,0,-0.3,0,0,0,--.--,--.--,--.--,--.--,--.--,--.--,0,0,313.7,7.9,-8.8,-0.3,31.91,--.--,--.--,0,0,0,0,0,0,0,0,--.--,--.--,--.--
2024-07-16 08:38:38.880,-2.5,2.9,313,-0.1,0,0,0,0,0,0,0.3,68.2,62.2,0.333,0,0,0,0,00:00:00,0.9,222,1,--.--,0,--.--,--.--,0,0,0002:53:13,0,1,1,25.15,-0.17,1,33,98,1,00H:00M:01S,1,-4.28,1,1,1,25.14,0.17,6,--.--,99,--.--,--:--:--,1,4.27,08:38:38,01:38:38,16/07/2024,--.--,--.--,--.--,--.--,--.--,--.--,--.--,--.--,--.--,--.--,--.--,--.--,0,--.--,--.--,--.--,--.--,--.--,--.--,--.--,--.--,--.--,--.--,--.--,--.--,--.--,--.--,--.--,--.--,0,0,0,0,0,0,0,0,0,0.4,0.4,0.4,0.4,true,false,true,false,false,true,true,true,false,false,false,false,--.--,--.--,0,0,--.--,0,0.02,0.28,0,0,--.--,--.--,--.--,--.--,--.--,0,0,0,0,15.9802871,108.2618135,49PBT 06913 68683,2.5,2.7,0,3,5,--.--,--.--,,--.--,--.--,--.--,0,0,--.--,--.--,0,0,0,-0.3,0,0,0,--.--,--.--,--.--,--.--,--.--,--.--,0,0,313.7,7.9,-8.8,-0.3,31.91,--.--,--.--,0,0,0,0,0,0,0,0,--.--,--.--,--.--
2024-07-16 08:38:39.880,-2.5,2.9,313,0,0,0,0,0,0,0,0.4,68.1,62.2,0.354,0,0,0,0,00:00:00,0,237.5,1,--.--,0,--.--,--.--,0,0,0002:53:13,0,1,1,25.15,-0.17,1,33,98,1,00H:00M:01S,1,-4.28,1,1,1,25.14,0.17,6,--.--,99,--.--,--:--:--,1,4.27,08:38:39,01:38:39,16/07/2024,--.--,--.--,--.--,--.--,--.--,--.--,--.--,--.--,--.--,--.--,--.--,--.--,0,--.--,--.--,--.--,--.--,--.--,--.--,--.--,--.--,--.--,--.--,--.--,--.--,--.--,--.--,--.--,--.--,0,0,0,0,0,0,0,0,0,0.4,0.4,0.4,0.4,true,false,true,false,false,true,true,true,false,false,false,false,--.--,--.--,0,0,--.--,0,0.02,0.28,0,0,--.--,--.--,--.--,--.--,--.--,0,0,0,0,15.9802853,108.2618129,49PBT 06913 68683,2.5,2.7,0,3,5,--.--,--.--,,--.--,--.--,--.--,0,0,--.--,--.--,0,0,0,-0.4,0,0,0,--.--,--.--,--.--,--.--,--.--,--.--,0,0,313.7,7.9,-8.8,-0.3,31.98,--.--,--.--,0,0,0,0,0,0,0,0,--.--,--.--,--.--
2024-07-16 08:38:40.880,-2.5,2.9,313,0,0,0,0,0,0,0,0.4,68.1,62.2,0.481,0,0,0,0,00:00:00,0.3,30.9,1,--.--,0,--.--,--.--,0,0,0002:53:13,0,1,1,25.15,-0.17,1,33,98,1,00H:00M:01S,1,-4.28,1,1,1,25.14,0.17,6,--.--,99,--.--,--:--:--,1,4.27,08:38:40,01:38:40,16/07/2024,--.--,--.--,--.--,--.--,--.--,--.--,--.--,--.--,--.--,--.--,--.--,--.--,0,--.--,--.--,--.--,--.--,--.--,--.--,--.--,--.--,--.--,--.--,--.--,--.--,--.--,--.--,--.--,--.--,0,0,0,0,0,0,0,0,0,0.4,0.4,0.4,0.4,true,false,true,false,false,true,true,true,false,false,false,false,--.--,--.--,0,0,--.--,0,0.02,0.28,0,0,--.--,--.--,--.--,--.--,--.--,0,0,0,0,15.9802833,108.2618132,49PBT 06913 68683,2.5,2.7,0,3,5,--.--,--.--,,--.--,--.--,--.--,0,0,--.--,--.--,0,0,0,-0.4,0,0,0,--.--,--.--,--.--,--.--,--.--,--.--,0,0,313.7,7.9,-8.8,-0.3,31.98,--.--,--.--,0,0,0,0,0,0,0,0,--.--,--.--,--.--
2024-07-16 08:38:41.880,-2.5,2.9,313,0,0.1,0.1,0,0,0,0,0.4,68.1,62.2,0.573,0,0,0,0,00:00:00,0.5,81.9,1,--.--,0,--.--,--.--,0,0,0002:53:13,0,1,1,25.15,-0.17,1,33,98,1,00H:00M:01S,1,-4.28,1,1,1,25.14,0.17,6,--.--,99,--.--,--:--:--,1,4.27,08:38:41,01:38:41,16/07/2024,--.--,--.--,--.--,--.--,--.--,--.--,--.--,--.--,--.--,--.--,--.--,--.--,0,--.--,--.--,--.--,--.--,--.--,--.--,--.--,--.--,--.--,--.--,--.--,--.--,--.--,--.--,--.--,--.--,0,0,0,0,0,0,0,0,0,0.4,0.4,0.4,0.4,true,false,true,false,false,true,true,true,false,false,false,false,--.--,--.--,0,0,--.--,0,0.02,0.28,0,0,--.--,--.--,--.--,--.--,--.--,0,0,0,0,15.9802818,108.2618148,49PBT 06913 68683,2.5,2.7,0,3,5,--.--,--.--,,--.--,--.--,--.--,0,0,--.--,--.--,0,0,0,-0.4,0,0,0,--.--,--.--,--.--,--.--,--.--,--.--,0,0,313.7,7.9,-8.8,-0.3,31.98,--.--,--.--,0,0,0,0,0,0,0,0,--.--,--.--,--.--
2024-07-16 08:38:42.880,-2.5,2.9,313,0,0,0,0,0,0,0,0.4,68.1,62.2,0.359,0,0,0,0,00:00:00,0.7,128.8,1,--.--,0,--.--,--.--,0,0,0002:53:13,0,1,1,25.15,-0.16,1,33,98,1,00H:00M:01S,1,-4.02,1,1,1,25.14,0.17,6,--.--,99,--.--,--:--:--,1,4.27,08:38:42,01:38:42,16/07/2024,--.--,--.--,--.--,--.--,--.--,--.--,--.--,--.--,--.--,--.--,--.--,--.--,0,--.--,--.--,--.--,--.--,--.--,--.--,--.--,--.--,--.--,--.--,--.--,--.--,--.--,--.--,--.--,--.--,0,0,0,0,0,0,0,0,0,0.4,0.4,0.4,0.4,true,false,true,false,false,true,true,true,false,false,false,false,--.--,--.--,0,0,--.--,0,0.01,0.29,0,0,--.--,--.--,--.--,--.--,--.--,0,0,0,0,15.9802804,108.2618166,49PBT 06913 68683,2.5,2.7,0,3,5,--.--,--.--,,--.--,--.--,--.--,0,0,--.--,--.--,0,0,0,-0.4,0,0,0,--.--,--.--,--.--,--.--,--.--,--.--,0,0,313.7,7.9,-8.8,-0.3,32.05,--.--,--.--,0,0,0,0,0,0,0,0,--.--,--.--,--.--
2024-07-16 08:38:43.879,-2.5,2.9,313,0,0.1,0,0,0,0,0,0.4,68.1,62.2,0.386,0,0,0,0,00:00:00,0.9,233.2,1,--.--,0,--.--,--.--,0,0,0002:53:13,0,1,1,25.15,-0.16,1,33,98,1,00H:00M:01S,1,-4.02,1,1,1,25.14,0.17,6,--.--,99,--.--,--:--:--,1,4.27,08:38:43,01:38:43,16/07/2024,--.--,--.--,--.--,--.--,--.--,--.--,--.--,--.--,--.--,--.--,--.--,--.--,0,--.--,--.--,--.--,--.--,--.--,--.--,--.--,--.--,--.--,--.--,--.--,--.--,--.--,--.--,--.--,--.--,0,0,0,0,0,0,0,0,0,0.4,0.4,0.4,0.4,true,false,true,false,false,true,true,true,false,false,false,false,--.--,--.--,0,0,--.--,0,0.01,0.29,0,0,--.--,--.--,--.--,--.--,--.--,0,0,0,0,15.9802791,108.2618172,49PBT 06913 68683,2.5,2.7,0,3,5,--.--,--.--,,--.--,--.--,--.--,0,0,--.--,--.--,0,0,0,-0.4,0,0,0,--.--,--.--,--.--,--.--,--.--,--.--,0,0,313.7,7.9,-8.8,-0.3,32.05,--.--,--.--,0,0,0,0,0,0,0,0,--.--,--.--,--.--
2024-07-16 08:38:44.879,-2.5,2.9,313,0,0,0,0,0,0,0,0.4,68.4,62.2,0.491,0,0,0,0,00:00:00,0.1,248.2,1,--.--,0,--.--,--.--,0,0,0002:53:13,0,1,1,25.15,-0.16,1,33,98,1,00H:00M:01S,1,-4.02,1,1,1,25.14,0.17,6,--.--,99,--.--,--:--:--,1,4.27,08:38:44,01:38:44,16/07/2024,--.--,--.--,--.--,--.--,--.--,--.--,--.--,--.--,--.--,--.--,--.--,--.--,0,--.--,--.--,--.--,--.--,--.--,--.--,--.--,--.--,--.--,--.--,--.--,--.--,--.--,--.--,--.--,--.--,0,0,0,0,0,0,0,0,0,0.4,0.4,0.4,0.4,true,false,true,false,false,true,true,true,false,false,false,false,--.--,--.--,0,0,--.--,0,0.01,0.29,0,0,--.--,--.--,--.--,--.--,--.--,0,0,0,0,15.9802779,108.2618186,49PBT 06913 68682,2.5,2.7,0,3,5,--.--,--.--,,--.--,--.--,--.--,0,0,--.--,--.--,0,0,0,-0.4,0,0,0,--.--,--.--,--.--,--.--,--.--,--.--,0,0,313.7,7.9,-8.8,-0.3,32.12,--.--,--.--,0,0,0,0,0,0,0,0,--.--,--.--,--.--
2024-07-16 08:38:45.880,-2.5,2.9,313,0,0,0,0,0,0,0,0.4,68.4,62.2,0.439,0,0,0,0,00:00:00,0.6,57.2,1,--.--,0,--.--,--.--,0,0,0002:53:13,0,1,1,25.15,-0.16,1,33,98,1,00H:00M:01S,1,-4.02,1,1,1,25.14,0.17,6,--.--,99,--.--,--:--:--,1,4.27,08:38:45,01:38:45,16/07/2024,--.--,--.--,--.--,--.--,--.--,--.--,--.--,--.--,--.--,--.--,--.--,--.--,0,--.--,--.--,--.--,--.--,--.--,--.--,--.--,--.--,--.--,--.--,--.--,--.--,--.--,--.--,--.--,--.--,0,0,0,0,0,0,0,0,0,0.4,0.4,0.4,0.4,true,false,true,false,false,true,true,true,false,false,false,false,--.--,--.--,0,0,--.--,0,0.01,0.29,0,0,--.--,--.--,--.--,--.--,--.--,0,0,0,0,15.9802768,108.2618234,49PBT 06914 68682,2.5,2.7,0,3,5,--.--,--.--,,--.--,--.--,--.--,0,0,--.--,--.--,0,0,0,-0.4,0,0,0,--.--,--.--,--.--,--.--,--.--,--.--,0,0,313.7,7.9,-8.8,-0.3,32.12,--.--,--.--,0,0,0,0,0,0,0,0,--.--,--.--,--.--
2024-07-16 08:38:46.880,-2.5,2.9,313,0,0,0,0,0,0,0,0.4,68.4,62.2,0.531,0,0,0,0,00:00:00,1.2,181.5,1,--.--,0,284,--.--,0,0,0002:53:13,0,1,1,25.15,-0.16,1,33,98,1,00H:00M:01S,1,-4.02,1,1,1,25.14,0.17,6,--.--,99,--.--,--:--:--,1,4.27,08:38:46,01:38:46,16/07/2024,--.--,--.--,--.--,--.--,--.--,--.--,--.--,--.--,--.--,--.--,--.--,--.--,0,--.--,--.--,--.--,--.--,--.--,--.--,--.--,--.--,--.--,--.--,--.--,--.--,--.--,--.--,--.--,--.--,0,0,0,0,0,0,0,0,0,0.4,0.4,0.4,0.4,true,false,true,false,false,true,true,true,false,false,false,false,--.--,--.--,0,0,--.--,0,0.01,0.29,0,0,--.--,--.--,--.--,--.--,--.--,0,0,0,0,15.9802758,108.2618286,49PBT 06914 68682,2.5,2.7,0,3,5,--.--,--.--,,--.--,--.--,--.--,0,0,--.--,--.--,0,0,0,-0.4,0,0,0,--.--,--.--,--.--,--.--,--.--,--.--,0,0,313.7,7.9,-8.8,-0.3,32.12,--.--,--.--,0,0,0,0,0,0,0,0,--.--,--.--,--.--
2024-07-16 08:38:47.880,-2.5,2.9,313,0,0,0,0,0,0,0,0.4,68,62.4,0.283,0,0,0,0,00:00:00,1.7,376.7,1,--.--,0,283,--.--,0,0,0002:53:13,0,1,1,25.15,-0.19,2,33,98,1,00H:00M:01S,1,-4.78,1,1,1,25.14,0.17,6,--.--,99,--.--,--:--:--,1,4.27,08:38:47,01:38:47,16/07/2024,--.--,--.--,--.--,--.--,--.--,--.--,--.--,--.--,--.--,--.--,--.--,--.--,0,--.--,--.--,--.--,--.--,--.--,--.--,--.--,--.--,--.--,--.--,--.--,--.--,--.--,--.--,--.--,--.--,0,0,0,0,0,0,0,0,0,0.4,0.4,0.4,0.4,true,false,true,false,false,true,true,true,false,false,false,false,--.--,--.--,0,0,--.--,0,0.02,0.28,0,0,--.--,--.--,--.--,--.--,--.--,0,0,0,0,15.9802748,108.2618336,49PBT 06915 68682,2.5,2.7,0,3,5,--.--,--.--,,--.--,--.--,--.--,0,0,--.--,--.--,0,0,0,-0.4,0,0,0,--.--,--.--,--.--,--.--,--.--,--.--,0,0,313.7,7.9,-8.8,-0.3,32.19,--.--,--.--,0,0,0,0,0,0,0,0,--.--,--.--,--.--
2024-07-16 08:38:48.879,-2.5,2.9,313,0,0,0,0,0,0,0,0.4,68,62.4,0.457,0,0,0,0,00:00:00,2.1,467.7,1,--.--,0,283,--.--,0,0,0002:53:13,0,1,1,25.15,-0.19,2,33,98,1,00H:00M:01S,1,-4.78,1,1,1,25.14,0.17,6,--.--,99,--.--,--:--:--,1,4.27,08:38:48,01:38:48,16/07/2024,--.--,--.--,--.--,--.--,--.--,--.--,--.--,--.--,--.--,--.--,--.--,--.--,0,--.--,--.--,--.--,--.--,--.--,--.--,--.--,--.--,--.--,--.--,--.--,--.--,--.--,--.--,--.--,--.--,0,0,0,0,0,0,0,0,0,0.4,0.4,0.4,0.4,true,false,true,false,false,true,true,true,false,false,false,false,--.--,--.--,0,0,--.--,0,0.02,0.28,0,0,--.--,--.--,--.--,--.--,--.--,0,0,0,0,15.9802742,108.2618369,49PBT 06915 68682,2.5,2.7,0,3,5,--.--,--.--,,--.--,--.--,--.--,0,0,--.--,--.--,0,0,0,-0.4,0,0,0,--.--,--.--,--.--,--.--,--.--,--.--,0,0,313.7,7.9,-8.8,-0.3,32.19,--.--,--.--,0,0,0,0,0,0,0,0,--.--,--.--,--.--
2024-07-16 08:38:49.879,-2.5,2.9,313,0,0,0,0,0,0,0,0.4,68.2,62.4,0.362,0,0,0,0,00:00:00,0.2,706.2,1,--.--,0,--.--,--.--,0,0,0002:53:13,0,1,1,25.15,-0.19,2,33,98,1,00H:00M:01S,1,-4.78,1,1,1,25.14,0.17,6,--.--,99,--.--,--:--:--,1,4.27,08:38:49,01:38:49,16/07/2024,--.--,--.--,--.--,--.--,--.--,--.--,--.--,--.--,--.--,--.--,--.--,--.--,0,--.--,--.--,--.--,--.--,--.--,--.--,--.--,--.--,--.--,--.--,--.--,--.--,--.--,--.--,--.--,--.--,0,0,0,0,0,0,0,0,0,0.4,0.4,0.4,0.4,true,false,true,false,false,true,true,true,false,false,false,false,--.--,--.--,0,0,--.--,0,0.02,0.28,0,0,--.--,--.--,--.--,--.--,--.--,0,0,0,0,15.9802725,108.2618382,49PBT 06915 68682,1.7,2.2,0,3,6,--.--,--.--,,--.--,--.--,--.--,0,0,--.--,--.--,0,0,0,-0.4,0,0,0,--.--,--.--,--.--,--.--,--.--,--.--,0,0,313.7,7.9,-8.8,-0.3,32.26,--.--,--.--,0,0,0,0,0,0,0,0,--.--,--.--,--.--
2024-07-16 08:38:50.879,-2.5,2.9,313,0,0,0,0,0,0,0,0.4,68.2,62.4,0.415,0,0,0,0,00:00:00,0.9,232.6,1,--.--,0,--.--,--.--,0,0,0002:53:13,0,1,1,25.15,-0.19,2,33,98,1,00H:00M:01S,1,-4.78,1,1,1,25.14,0.17,6,--.--,99,--.--,--:--:--,1,4.27,08:38:50,01:38:50,16/07/2024,--.--,--.--,--.--,--.--,--.--,--.--,--.--,--.--,--.--,--.--,--.--,--.--,0,--.--,--.--,--.--,--.--,--.--,--.--,--.--,--.--,--.--,--.--,--.--,--.--,--.--,--.--,--.--,--.--,0,0,0,0,0,0,0,0,0,0.4,0.4,0.4,0.4,true,false,true,false,false,true,true,true,false,false,false,false,--.--,--.--,0,0,--.--,0,0.02,0.28,0,0,--.--,--.--,--.--,--.--,--.--,0,0,0,0,15.9802718,108.2618322,49PBT 06915 68682,1.7,2.2,0,3,6,--.--,--.--,,--.--,--.--,--.--,0,0,--.--,--.--,0,0,0,-0.4,0,0,0,--.--,--.--,--.--,--.--,--.--,--.--,0,0,313.7,7.9,-8.8,-0.3,32.26,--.--,--.--,0,0,0,0,0,0,0,0,--.--,--.--,--.--
2024-07-16 08:38:51.880,-2.5,2.9,313,0,0,0,0,0,0,0,0.4,68.2,62.4,0.428,0,0,0,0,00:00:00,2,469.1,1,--.--,0,83,--.--,0,0,0002:53:13,0,1,1,25.15,-0.19,2,33,98,1,00H:00M:01S,1,-4.78,1,1,1,25.14,0.17,6,--.--,99,--.--,--:--:--,1,4.27,08:38:51,01:38:51,16/07/2024,--.--,--.--,--.--,--.--,--.--,--.--,--.--,--.--,--.--,--.--,--.--,--.--,0,--.--,--.--,--.--,--.--,--.--,--.--,--.--,--.--,--.--,--.--,--.--,--.--,--.--,--.--,--.--,--.--,0,0,0,0,0,0,0,0,0,0.4,0.4,0.4,0.4,true,false,true,false,false,true,true,true,false,false,false,false,--.--,--.--,0,0,--.--,0,0.02,0.28,0,0,--.--,--.--,--.--,--.--,--.--,0,0,0,0,15.9802707,108.2618219,49PBT 06913 68682,1.7,2.2,0,3,6,--.--,--.--,,--.--,--.--,--.--,0,0,--.--,--.--,0,0,0,-0.4,0,0,0,--.--,--.--,--.--,--.--,--.--,--.--,0,0,313.7,7.9,-8.8,-0.3,32.26,--.--,--.--,0,0,0,0,0,0,0,0,--.--,--.--,--.--
2024-07-16 08:38:52.879,-2.5,2.9,313,0,0,0,0,0,0,0,0.4,68.3,62.4,0.634,0,0,0,0,00:00:00,3,893.9,1,--.--,0,83,--.--,0,0,0002:53:13,0,1,1,25.15,-0.17,2,33,98,1,00H:00M:01S,1,-4.28,1,1,1,25.14,0.17,6,--.--,99,--.--,--:--:--,1,4.27,08:38:52,01:38:52,16/07/2024,--.--,--.--,--.--,--.--,--.--,--.--,--.--,--.--,--.--,--.--,--.--,--.--,0,--.--,--.--,--.--,--.--,--.--,--.--,--.--,--.--,--.--,--.--,--.--,--.--,--.--,--.--,--.--,--.--,0,0,0,0,0,0,0,0,0,0.4,0.4,0.4,0.4,true,false,true,false,false,true,true,true,false,false,false,false,--.--,--.--,0.01,0,--.--,0,0.01,0.29,0,0,--.--,--.--,--.--,--.--,--.--,0,0,0,0,15.9802697,108.2618122,49PBT 06912 68682,1.7,2.2,0,3,6,--.--,--.--,,--.--,--.--,--.--,0,0,--.--,--.--,0,0,0,-0.4,0,0,0,--.--,--.--,--.--,--.--,--.--,--.--,0,0,313.7,7.9,-8.8,-0.3,32.34,--.--,--.--,0,0,0,0,0,0,0,0,--.--,--.--,--.--
2024-07-16 08:38:53.880,-2.5,2.9,313,0,0,0,0,0,0,0,0.4,68.3,62.4,0.637,0,0,0,0,00:00:00,4,864.5,1,--.--,0,84,--.--,0,0,0002:53:13,0,1,1,25.15,-0.17,2,33,98,1,00H:00M:01S,1,-4.28,1,1,1,25.14,0.17,6,--.--,99,--.--,--:--:--,1,4.27,08:38:53,01:38:53,16/07/2024,--.--,--.--,--.--,--.--,--.--,--.--,--.--,--.--,--.--,--.--,--.--,--.--,0,--.--,--.--,--.--,--.--,--.--,--.--,--.--,--.--,--.--,--.--,--.--,--.--,--.--,--.--,--.--,--.--,0,0,0,0,0,0,0,0,0,0.4,0.4,0.4,0.4,true,false,true,false,false,true,true,true,false,false,false,false,--.--,--.--,0.01,0,--.--,0,0.01,0.29,0,0,--.--,--.--,--.--,--.--,--.--,0,0,0,0,15.9802691,108.261803,49PBT 06911 68682,1.7,2.2,0,3,6,--.--,--.--,,--.--,--.--,--.--,0,0,--.--,--.--,0,0,0,-0.4,0,0,0,--.--,--.--,--.--,--.--,--.--,--.--,0,0,313.7,7.9,-8.8,-0.3,32.34,--.--,--.--,0,0,0,0,0,0,0,0,--.--,--.--,--.--
2024-07-16 08:38:54.880,-2.5,2.9,313,0,0,0,0,0,0,0,0.5,68.6,62.3,0.47,0,0,0,0,00:00:00,0.2,1483.8,1,--.--,0,--.--,--.--,0,0,0002:53:13,0,1,1,25.15,-0.17,2,33,98,1,00H:00M:01S,1,-4.28,1,1,1,25.14,0.17,6,--.--,99,--.--,--:--:--,1,4.27,08:38:54,01:38:54,16/07/2024,--.--,--.--,--.--,--.--,--.--,--.--,--.--,--.--,--.--,--.--,--.--,--.--,0,--.--,--.--,--.--,--.--,--.--,--.--,--.--,--.--,--.--,--.--,--.--,--.--,--.--,--.--,--.--,--.--,0,0,0,0,0,0,0,0,0,0.4,0.4,0.4,0.4,true,false,true,false,false,true,true,true,false,false,false,false,--.--,--.--,0.01,0,--.--,0,0.01,0.29,0,0,--.--,--.--,--.--,--.--,--.--,0,0,0,0,15.9802687,108.2617929,49PBT 06910 68681,1.7,2.2,0,3,6,--.--,--.--,,--.--,--.--,--.--,0,0,--.--,--.--,0,0,0,-0.5,0,0,0,--.--,--.--,--.--,--.--,--.--,--.--,0,0,313.7,7.9,-8.8,-0.3,32.41,--.--,--.--,0,0,0,0,0,0,0,0,--.--,--.--,--.--
2024-07-16 08:38:55.879,-2.5,2.9,313,0,0,0,0,0,0,0,0.5,68.6,62.3,0.735,0,0,0,0,00:00:00,0.4,125.9,1,--.--,0,--.--,--.--,0,0,0002:53:13,0,1,1,25.15,-0.17,2,33,98,1,00H:00M:01S,1,-4.28,1,1,1,25.14,0.17,6,--.--,99,--.--,--:--:--,1,4.27,08:38:55,01:38:55,16/07/2024,--.--,--.--,--.--,--.--,--.--,--.--,--.--,--.--,--.--,--.--,--.--,--.--,0,--.--,--.--,--.--,--.--,--.--,--.--,--.--,--.--,--.--,--.--,--.--,--.--,--.--,--.--,--.--,--.--,0,0,0,0,0,0,0,0,0,0.4,0.4,0.4,0.4,true,false,true,false,false,true,true,true,false,false,false,false,--.--,--.--,0.01,0,--.--,0,0.01,0.29,0,0,--.--,--.--,--.--,--.--,--.--,0,0,0,0,15.9802693,108.2617874,49PBT 06910 68682,1.7,2.2,0,3,6,--.--,--.--,,--.--,--.--,--.--,0,0,--.--,--.--,0,0,0,-0.5,0,0,0,--.--,--.--,--.--,--.--,--.--,--.--,0,0,313.7,7.9,-8.8,-0.3,32.41,--.--,--.--,0,0,0,0,0,0,0,0,--.--,--.--,--.--
2024-07-16 08:38:56.880,-2.5,2.9,313,0,0,0,0,0,0,0,0.5,68.6,62.6,0.639,0,0,0,0,00:00:00,0.9,282.3,1,--.--,0,--.--,--.--,0,0,0002:53:13,0,1,1,25.15,-0.17,2,33,98,1,00H:00M:01S,1,-4.28,1,1,1,25.14,0.17,6,--.--,99,--.--,--:--:--,1,4.27,08:38:56,01:38:56,16/07/2024,--.--,--.--,--.--,--.--,--.--,--.--,--.--,--.--,--.--,--.--,--.--,--.--,0,--.--,--.--,--.--,--.--,--.--,--.--,--.--,--.--,--.--,--.--,--.--,--.--,--.--,--.--,--.--,--.--,0,0,0,0,0,0,0,0,0,0.4,0.4,0.4,0.4,true,false,true,false,false,true,true,true,false,false,false,false,--.--,--.--,0.01,0,--.--,0,0.01,0.29,0,0,--.--,--.--,--.--,--.--,--.--,0,0,0,0,15.98027,108.261783,49PBT 06909 68682,1.7,2.2,0,3,6,--.--,--.--,,--.--,--.--,--.--,0,0,--.--,--.--,0,0,0,-0.5,0,0,0,--.--,--.--,--.--,--.--,--.--,--.--,0,0,313.7,7.9,-8.8,-0.3,32.41,--.--,--.--,0,0,0,0,0,0,0,0,--.--,--.--,--.--
2024-07-16 08:38:57.879,-2.5,2.9,313,0,0,0,0,0,0,0,0.5,68.5,62.6,0.521,0,0,0,0,00:00:00,1.3,298.5,1,--.--,0,99,--.--,0,0,0002:53:13,0,1,1,25.15,-0.15,2,33,98,1,00H:00M:01S,1,-3.77,1,1,1,25.14,0.17,7,--.--,99,--.--,--:--:--,1,4.27,08:38:57,01:38:57,16/07/2024,--.--,--.--,--.--,--.--,--.--,--.--,--.--,--.--,--.--,--.--,--.--,--.--,0,--.--,--.--,--.--,--.--,--.--,--.--,--.--,--.--,--.--,--.--,--.--,--.--,--.--,--.--,--.--,--.--,0,0,0,0,0,0,0,0,0,0.4,0.4,0.4,0.4,true,false,true,false,false,true,true,true,false,false,false,false,--.--,--.--,0,0,--.--,0,0.02,0.28,0,0,--.--,--.--,--.--,--.--,--.--,0,0,0,0,15.9802706,108.2617796,49PBT 06909 68682,1.7,2.2,0,3,6,--.--,--.--,,--.--,--.--,--.--,0,0,--.--,--.--,0,0,0,-0.5,0,0,0,--.--,--.--,--.--,--.--,--.--,--.--,0,0,313.7,7.9,-8.8,-0.3,32.49,--.--,--.--,0,0,0,0,0,0,0,0,--.--,--.--,--.--
2024-07-16 08:38:58.880,-2.5,2.9,313,0,0,0.1,0,0,0,0,0.5,68.5,62.6,0.51,0,0,0,0,00:00:00,1.5,322.6,1,--.--,0,96,--.--,0,0,0002:53:13,0,1,1,25.15,-0.15,2,33,98,1,00H:00M:01S,1,-3.77,1,1,1,25.14,0.17,7,--.--,99,--.--,--:--:--,1,4.27,08:38:58,01:38:58,16/07/2024,--.--,--.--,--.--,--.--,--.--,--.--,--.--,--.--,--.--,--.--,--.--,--.--,0,--.--,--.--,--.--,--.--,--.--,--.--,--.--,--.--,--.--,--.--,--.--,--.--,--.--,--.--,--.--,--.--,0,0,0,0,0,0,0,0,0,0.4,0.4,0.4,0.4,true,false,true,false,false,true,true,true,false,false,false,false,--.--,--.--,0,0,--.--,0,0.02,0.28,0,0,--.--,--.--,--.--,--.--,--.--,0,0,0,0,15.9802701,108.2617779,49PBT 06909 68682,1.7,2.2,0,3,6,--.--,--.--,,--.--,--.--,--.--,0,0,--.--,--.--,0,0,0,-0.5,0,0,0,--.--,--.--,--.--,--.--,--.--,--.--,0,0,313.7,7.9,-8.8,-0.3,32.49,--.--,--.--,0,0,0,0,0,0,0,0,--.--,--.--,--.--
2024-07-16 08:38:59.880,-2.5,2.9,313,0,0,0,0,0,0,0,0.5,68.6,62.6,0.687,0,0,0,0,00:00:00,0.1,464.9,1,--.--,0,--.--,--.--,0,0,0002:53:13,0,1,1,25.15,-0.15,2,33,98,1,00H:00M:01S,1,-3.77,1,1,1,25.14,0.17,7,--.--,99,--.--,--:--:--,1,4.27,08:38:59,01:38:59,16/07/2024,--.--,--.--,--.--,--.--,--.--,--.--,--.--,--.--,--.--,--.--,--.--,--.--,0,--.--,--.--,--.--,--.--,--.--,--.--,--.--,--.--,--.--,--.--,--.--,--.--,--.--,--.--,--.--,--.--,0,0,0,0,0,0,0,0,0,0.4,0.4,0.4,0.4,true,false,true,false,false,true,true,true,false,false,false,false,--.--,--.--,0,0,--.--,0,0.02,0.28,0,0,--.--,--.--,--.--,--.--,--.--,0,0,0,0,15.9802693,108.261776,49PBT 06909 68682,1.7,2.2,0,3,6,--.--,--.--,,--.--,--.--,--.--,0,0,--.--,--.--,0,0,0,-0.5,0,0,0,--.--,--.--,--.--,--.--,--.--,--.--,0,0,313.7,7.9,-8.8,-0.3,32.56,--.--,--.--,0,0,0,0,0,0,0,0,--.--,--.--,--.--
2024-07-16 08:39:00.880,-2.5,2.9,313,0,0,0,0,0,0,0,0.5,68.6,62.6,0.61,0,0,0,0,00:00:00,0.1,41.4,1,--.--,0,--.--,--.--,0,0,0002:53:13,0,1,1,25.15,-0.15,2,33,98,1,00H:00M:01S,1,-3.77,1,1,1,25.14,0.17,7,--.--,99,--.--,--:--:--,1,4.27,08:39:00,01:39:00,16/07/2024,--.--,--.--,--.--,--.--,--.--,--.--,--.--,--.--,--.--,--.--,--.--,--.--,0,--.--,--.--,--.--,--.--,--.--,--.--,--.--,--.--,--.--,--.--,--.--,--.--,--.--,--.--,--.--,--.--,0,0,0,0,0,0,0,0,0,0.4,0.4,0.4,0.4,true,false,true,false,false,true,true,true,false,false,false,false,--.--,--.--,0,0,--.--,0,0.02,0.28,0,0,--.--,--.--,--.--,--.--,--.--,0,0,0,0,15.9802682,108.2617748,49PBT 06908 68681,1.7,2.2,0,3,6,--.--,--.--,,--.--,--.--,--.--,0,0,--.--,--.--,0,0,0,-0.5,0,0,0,--.--,--.--,--.--,--.--,--.--,--.--,0,0,313.7,7.9,-8.8,-0.3,32.56,--.--,--.--,0,0,0,0,0,0,0,0,--.--,--.--,--.--
2024-07-16 08:39:01.879,-2.5,2.9,313,-0.3,0.6,-0.5,0,0,0,0,0.5,68.6,62.6,0.674,0,0,0,0,00:00:00,0.4,63.9,1,--.--,0,--.--,--.--,0,0,0002:53:13,0,1,1,25.15,-0.15,2,33,98,1,00H:00M:01S,1,-3.77,1,1,1,25.14,0.17,7,--.--,99,--.--,--:--:--,1,4.27,08:39:01,01:39:01,16/07/2024,--.--,--.--,--.--,--.--,--.--,--.--,--.--,--.--,--.--,--.--,--.--,--.--,0,--.--,--.--,--.--,--.--,--.--,--.--,--.--,--.--,--.--,--.--,--.--,--.--,--.--,--.--,--.--,--.--,0,0,0,0,0,0,0,0,0,0.4,0.4,0.4,0.4,true,false,true,false,false,true,true,true,false,false,false,false,--.--,--.--,0,0,--.--,0,0.02,0.28,0,0,--.--,--.--,--.--,--.--,--.--,0,0,0,0,15.9802686,108.2617723,49PBT 06908 68681,1.7,2.2,0,3,6,--.--,--.--,,--.--,--.--,--.--,0,0,--.--,--.--,0,0,0,-0.5,0,0,0,--.--,--.--,--.--,--.--,--.--,--.--,0,0,313.7,7.9,-8.8,-0.3,32.56,--.--,--.--,0,0,0,0,0,0,0,0,--.--,--.--,--.--
2024-07-16 08:39:02.880,-2.5,2.9,313,0.2,-0.4,0.7,0,0,0,0,0.6,68.3,62.6,0.536,0,0,0,0,00:00:00,0.5,17,1,--.--,0,--.--,--.--,0,0,0002:53:13,0,1,1,25.15,-0.18,2,33,98,1,00H:00M:01S,1,-4.53,1,1,1,25.14,0.17,7,--.--,99,--.--,--:--:--,1,4.27,08:39:02,01:39:02,16/07/2024,--.--,--.--,--.--,--.--,--.--,--.--,--.--,--.--,--.--,--.--,--.--,--.--,0,--.--,--.--,--.--,--.--,--.--,--.--,--.--,--.--,--.--,--.--,--.--,--.--,--.--,--.--,--.--,--.--,0,0,0,0,0,0,0,0,0,0.4,0.4,0.4,0.4,true,false,true,false,false,true,true,true,false,false,false,false,--.--,--.--,0,0,--.--,0,0.02,0.28,0,0,--.--,--.--,--.--,--.--,--.--,0,0,0,0,15.98027,108.2617714,49PBT 06908 68682,1.7,2.2,0,3,6,--.--,--.--,,--.--,--.--,--.--,0,0,--.--,--.--,0,0,0,-0.6,0,0,0,--.--,--.--,--.--,--.--,--.--,--.--,0,0,313.6,8.1,-10.5,-0.4,32.63,--.--,--.--,0,0,0,0,0,0,0,0,--.--,--.--,--.--
2024-07-16 08:39:03.880,-2.1,2.3,313,-2.1,-0.9,-0.6,0,0,0,0,0.6,68.3,62.6,0.79,0,0,0,0,00:00:00,0.6,21.3,1,--.--,0,--.--,--.--,0,0,0002:53:13,0,1,1,25.15,-0.18,2,33,98,1,00H:00M:01S,1,-4.53,1,1,1,25.14,0.17,7,--.--,99,--.--,--:--:--,1,4.27,08:39:03,01:39:03,16/07/2024,--.--,--.--,--.--,--.--,--.--,--.--,--.--,--.--,--.--,--.--,--.--,--.--,0,--.--,--.--,--.--,--.--,--.--,--.--,--.--,--.--,--.--,--.--,--.--,--.--,--.--,--.--,--.--,--.--,0,0,0,0,0,0,0,0,0,0.4,0.4,0.4,0.4,true,false,true,false,false,true,true,true,false,false,false,false,--.--,--.--,0,0,--.--,0,0.07,0.3,0,0,--.--,--.--,--.--,--.--,--.--,0,0,0,0,15.9802692,108.2617699,49PBT 06908 68682,1.7,2.2,0,3,6,--.--,--.--,,--.--,--.--,--.--,0,0,--.--,--.--,0,0,0,-0.6,0,0,0,--.--,--.--,--.--,--.--,--.--,--.--,0,0,313.8,7,-7.7,-0.2,32.63,--.--,--.--,0,0,0,0,0,0,0,0,--.--,--.--,--.--
2024-07-16 08:39:04.880,-2.4,2.6,314,0.4,2.7,0.2,0,0,0,0,0.6,68.3,62.6,0.735,0,0,0,0,00:00:00,0.1,21.1,1,--.--,0,--.--,--.--,0,0,0002:53:13,0,1,1,25.15,-0.18,2,33,98,1,00H:00M:01S,1,-4.53,1,1,1,25.14,0.17,7,--.--,99,--.--,--:--:--,1,4.27,08:39:04,01:39:04,16/07/2024,--.--,--.--,--.--,--.--,--.--,--.--,--.--,--.--,--.--,--.--,--.--,--.--,0,--.--,--.--,--.--,--.--,--.--,--.--,--.--,--.--,--.--,--.--,--.--,--.--,--.--,--.--,--.--,--.--,0,0,0,0,0,0,0,0,0,0.4,0.4,0.4,0.4,true,false,true,false,false,true,true,true,false,false,false,false,--.--,--.--,0,0,--.--,0,0.07,0.3,0,0,--.--,--.--,--.--,--.--,--.--,0,0,0,0,15.9802688,108.2617696,49PBT 06908 68682,1.7,2.2,0,3,6,--.--,--.--,,--.--,--.--,--.--,0,0,--.--,--.--,0,0,0,-0.6,0,0,0,--.--,--.--,--.--,--.--,--.--,--.--,0,0,313.8,7,-7.7,-0.2,32.63,--.--,--.--,0,0,0,0,0,0,0,0,--.--,--.--,--.--
2024-07-16 08:39:05.880,-2.4,2.6,314,0.8,-0.3,-0.5,0,0,0,0,0.6,68.3,62.6,0.46,0,0,0,0,00:00:00,0.1,2.5,1,--.--,0,--.--,--.--,0,0,0002:53:13,0,1,1,25.15,-0.18,2,33,98,1,00H:00M:01S,1,-4.53,1,1,1,25.14,0.17,7,--.--,99,--.--,--:--:--,1,4.27,08:39:05,01:39:05,16/07/2024,--.--,--.--,--.--,--.--,--.--,--.--,--.--,--.--,--.--,--.--,--.--,--.--,0,--.--,--.--,--.--,--.--,--.--,--.--,--.--,--.--,--.--,--.--,--.--,--.--,--.--,--.--,--.--,--.--,0,0,0,0,0,0,0,0,0,0.4,0.4,0.4,0.4,true,false,true,false,false,true,true,true,false,false,false,false,--.--,--.--,0,0,--.--,0,0.07,0.3,0,0,--.--,--.--,--.--,--.--,--.--,0,0,0,0,15.9802676,108.2617694,49PBT 06908 68681,1.7,2.2,0,3,6,--.--,--.--,,--.--,--.--,--.--,0,0,--.--,--.--,0,0,0,-0.6,0,0,0,--.--,--.--,--.--,--.--,--.--,--.--,0,0,313.8,7,-7.7,-0.2,32.63,--.--,--.--,0,0,0,0,0,0,0,0,--.--,--.--,--.--
2024-07-16 08:39:06.879,-2.9,3,314,-0.6,-0.3,-1.3,0,0,0,0,0.6,68.3,62.6,0.433,0,0,0,0,00:00:00,0.4,21.9,1,--.--,0,--.--,--.--,0,0,0002:53:13,0,1,1,25.15,-0.18,2,33,98,1,00H:00M:01S,1,-4.53,1,1,1,25.14,0.17,7,--.--,99,--.--,--:--:--,1,4.27,08:39:06,01:39:06,16/07/2024,--.--,--.--,--.--,--.--,--.--,--.--,--.--,--.--,--.--,--.--,--.--,--.--,0,--.--,--.--,--.--,--.--,--.--,--.--,--.--,--.--,--.--,--.--,--.--,--.--,--.--,--.--,--.--,--.--,0,0,0,0,0,0,0,0,0,0.4,0.4,0.4,0.4,true,false,true,false,false,true,true,true,false,false,false,false,--.--,--.--,0,0,--.--,0,0.07,0.3,0,0,--.--,--.--,--.--,--.--,--.--,0,0,0,0,15.9802661,108.2617673,49PBT 06908 68681,1.7,2.2,0,3,6,--.--,--.--,,--.--,--.--,--.--,0,0,--.--,--.--,0,0,0,-0.6,0,0,0,--.--,--.--,--.--,--.--,--.--,--.--,0,0,314,7.7,-8.2,-0.3,32.63,--.--,--.--,0,0,0,0,0,0,0,0,--.--,--.--,--.--
2024-07-16 08:39:07.880,-2.4,3,314,0.8,0.4,-2,0,0,0,0,0.6,68.2,62.2,0.299,0,0,0,0,00:00:00,1,24.2,1,--.--,0,55,--.--,0,0,0002:53:13,0,1,1,25.15,-0.18,2,33,98,1,00H:00M:01S,1,-4.53,1,1,1,25.14,0.17,7,--.--,99,--.--,--:--:--,1,4.27,08:39:07,01:39:07,16/07/2024,--.--,--.--,--.--,--.--,--.--,--.--,--.--,--.--,--.--,--.--,--.--,--.--,0,--.--,--.--,--.--,--.--,--.--,--.--,--.--,--.--,--.--,--.--,--.--,--.--,--.--,--.--,--.--,--.--,0,0,0,0,0,0,0,0,0,0.4,0.4,0.4,0.4,true,false,true,false,false,true,true,true,false,false,false,false,--.--,--.--,0,0,--.--,0,0.07,0.3,0,0,--.--,--.--,--.--,--.--,--.--,0,0,0,0,15.9802627,108.2617626,49PBT 06907 68681,1.7,2.2,0,3,6,--.--,--.--,,--.--,--.--,--.--,0,0,--.--,--.--,0,0,0,-0.6,0,0,0,--.--,--.--,--.--,--.--,--.--,--.--,0,0,314.1,8,-8.1,-0.4,32.77,--.--,--.--,0,0,0,0,0,0,0,0,--.--,--.--,--.--
2024-07-16 08:39:08.880,-2.3,3.3,313,1.7,0.1,-0.9,0.1,0,0,0,0.6,68.2,62.2,0.47,0,0,0,0,00:00:00,1.4,22.1,1,--.--,0,52,--.--,0,0,0002:53:13,0,1,1,25.14,-0.15,2,33,98,1,00H:00M:01S,1,-3.77,1,1,1,25.14,0.17,7,--.--,99,--.--,--:--:--,1,4.27,08:39:08,01:39:08,16/07/2024,--.--,--.--,--.--,--.--,--.--,--.--,--.--,--.--,--.--,--.--,--.--,--.--,0,--.--,--.--,--.--,--.--,--.--,--.--,--.--,--.--,--.--,--.--,--.--,--.--,--.--,--.--,--.--,--.--,0,0,0,0,0,0,0,0,0,0.4,0.4,0.4,0.4,true,false,true,false,false,true,true,true,false,false,false,false,--.--,--.--,0,0,--.--,0,0.31,0.53,0,0,--.--,--.--,--.--,--.--,--.--,0,0,0,0,15.9802605,108.2617603,49PBT 06907 68681,1.7,2.2,0,3,6,--.--,--.--,,--.--,--.--,--.--,0,0,--.--,--.--,0,0,0,-0.6,0,0,0,--.--,--.--,--.--,--.--,--.--,--.--,0,0,314,7.6,-9.1,-0.3,32.77,--.--,--.--,0,0,0,0,0,0,0,0,--.--,--.--,--.--
2024-07-16 08:39:09.879,-2.3,3,313,0.8,1.7,1.7,0,0,0,0,0.5,68.3,62.2,0.367,0,0,0,0,00:00:00,0.1,52.8,1,--.--,0,--.--,--.--,0,0,0002:53:13,0,1,1,25.14,-0.15,2,33,98,1,00H:00M:01S,1,-3.77,1,1,1,25.14,0.17,7,--.--,99,--.--,--:--:--,1,4.27,08:39:09,01:39:09,16/07/2024,--.--,--.--,--.--,--.--,--.--,--.--,--.--,--.--,--.--,--.--,--.--,--.--,0,--.--,--.--,--.--,--.--,--.--,--.--,--.--,--.--,--.--,--.--,--.--,--.--,--.--,--.--,--.--,--.--,0,0,0,0,0,0,0,0,0,0.4,0.4,0.4,0.4,true,false,true,false,false,true,true,true,false,false,false,false,--.--,--.--,0,0,--.--,0,0.31,0.53,0,0,--.--,--.--,--.--,--.--,--.--,0,0,0,0,15.9802584,108.2617587,49PBT 06907 68680,1.7,2.2,0,3,6,--.--,--.--,,--.--,--.--,--.--,0,0,--.--,--.--,0,0,0,-0.5,0,0,0,--.--,--.--,--.--,--.--,--.--,--.--,0,0,313.8,7.6,-8.3,-0.3,32.84,--.--,--.--,0,0,0,0,0,0,0,0,--.--,--.--,--.--
2024-07-16 08:39:10.880,2.1,1.3,316,11.3,-0.4,30.6,0,0,0,0,0.5,68.3,62.2,0.412,0,0,0,0,00:00:00,0.2,11.2,1,--.--,0,--.--,--.--,0,0,0002:53:13,0,1,1,25.14,-0.15,2,33,98,1,00H:00M:01S,1,-3.77,1,1,1,25.14,0.17,7,--.--,99,--.--,--:--:--,1,4.27,08:39:10,01:39:10,16/07/2024,--.--,--.--,--.--,--.--,--.--,--.--,--.--,--.--,--.--,--.--,--.--,--.--,0,--.--,--.--,--.--,--.--,--.--,--.--,--.--,--.--,--.--,--.--,--.--,--.--,--.--,--.--,--.--,--.--,0,0,0,0,0,0,0,0,0,0.4,0.4,0.4,0.4,true,false,true,false,false,true,true,true,false,false,false,false,--.--,--.--,0,0,--.--,0,0.31,0.53,0,0,--.--,--.--,--.--,--.--,--.--,0,0,0,0,15.9802564,108.2617572,49PBT 06907 68680,1.7,2.2,0,3,6,--.--,--.--,,--.--,--.--,--.--,0,0,--.--,--.--,0,0,0,-0.5,0,0,0,--.--,--.--,--.--,--.--,--.--,--.--,0,0,313.8,7.6,-8.3,-0.3,32.84,--.--,--.--,0,0,0,0,0,0,0,0,--.--,--.--,--.--
2024-07-16 08:39:11.879,4.7,-6.4,26,9.2,7.4,70.3,0.5,0,0,0,0.5,68.3,62.2,0.655,0,0,0,0,00:00:00,0.4,1,1,--.--,0,--.--,--.--,0,0,0002:53:13,0,1,1,25.14,-0.15,2,33,98,1,00H:00M:01S,1,-3.77,1,1,1,25.14,0.17,7,--.--,99,--.--,--:--:--,1,4.27,08:39:11,01:39:11,16/07/2024,--.--,--.--,--.--,--.--,--.--,--.--,--.--,--.--,--.--,--.--,--.--,--.--,0,--.--,--.--,--.--,--.--,--.--,--.--,--.--,--.--,--.--,--.--,--.--,--.--,--.--,--.--,--.--,--.--,0,0,0,0,0,0,0,0,0,0.4,0.4,0.4,0.4,true,false,true,false,false,true,true,true,false,false,false,false,--.--,--.--,0,0,--.--,0,0.31,0.53,0,0,--.--,--.--,--.--,--.--,--.--,0,0,0,0,15.9802563,108.2617543,49PBT 06906 68680,1.7,2.2,0,3,6,--.--,--.--,,--.--,--.--,--.--,0,0,--.--,--.--,0,0,0,-0.5,0,0,0,--.--,--.--,--.--,--.--,--.--,--.--,0,0,323.5,-6.2,-4.2,-1.1,32.84,--.--,--.--,0,0,0,0,0.1,0,0,0,--.--,--.--,--.--
2024-07-16 08:39:12.880,3.3,3.1,104,-26.7,-9.2,81,1.1,0,0,0,0.6,68.2,65.2,0.33,0,0,0,0,00:00:00,2.2,1.1,1,--.--,0,51,--.--,0,0,0002:53:13,0,1,1,25.14,-0.15,2,33,98,1,00H:00M:01S,1,-3.77,1,1,1,25.14,0.17,7,--.--,99,--.--,--:--:--,1,4.27,08:39:12,01:39:12,16/07/2024,--.--,--.--,--.--,--.--,--.--,--.--,--.--,--.--,--.--,--.--,--.--,--.--,0,--.--,--.--,--.--,--.--,--.--,--.--,--.--,--.--,--.--,--.--,--.--,--.--,--.--,--.--,--.--,--.--,0,0,0,0,0,0,0,0,0,0.4,0.4,0.4,0.4,true,false,true,false,false,true,true,true,false,false,false,false,--.--,--.--,0,0,--.--,0,0.31,0.53,0,0,--.--,--.--,--.--,--.--,--.--,0,0,0,0,15.9802454,108.2617424,49PBT 06905 68679,1.7,2.2,225,3,6,--.--,--.--,,--.--,--.--,--.--,0,0,--.--,--.--,0,-0.3,-0.4,-0.6,-0.6,-0.6,0,--.--,--.--,--.--,--.--,--.--,--.--,0,0,55.8,-19.9,11,-5.6,32.91,--.--,--.--,0,0,0,0,0.1,0,0,0,--.--,--.--,--.--
2024-07-16 08:39:13.880,2.8,-4.5,159,-2.6,11.7,34.2,0.8,0,0,0,0.6,68.2,65.2,0.486,0,0,0,0,00:00:00,5.9,5.3,1,--.--,0,60,--.--,0,0,0002:53:13,0,1,1,25.14,-0.17,3,33,98,1,00H:00M:01S,1,-4.27,1,1,1,25.14,0.17,7,--.--,99,--.--,--:--:--,1,4.27,08:39:13,01:39:13,16/07/2024,--.--,--.--,--.--,--.--,--.--,--.--,--.--,--.--,--.--,--.--,--.--,--.--,0,--.--,--.--,--.--,--.--,--.--,--.--,--.--,--.--,--.--,--.--,--.--,--.--,--.--,--.--,--.--,--.--,0,0,0,0,0,0,0,0,0,0.4,0.4,0.4,0.4,true,false,true,false,false,true,true,true,false,false,false,false,--.--,--.--,0,0,--.--,0,0.31,0.57,0,0,--.--,--.--,--.--,--.--,--.--,0,0,0,0,15.9802315,108.2617103,49PBT 06901 68677,1.7,2.2,197.6,3,6,--.--,--.--,,--.--,--.--,--.--,0,0,--.--,--.--,0,-0.3,-0.4,-0.6,-0.6,-0.6,0,--.--,--.--,--.--,--.--,--.--,--.--,0,0,156.3,-8.9,15.8,-2.8,32.91,--.--,--.--,0,0,0,0,0.1,0,0,0,--.--,--.--,--.--
2024-07-16 08:39:14.880,0.1,-1.2,186,-3.7,-1,26.2,0.5,0,0,0,0.4,68.1,65.2,0.349,0,0,0,0,00:00:00,9.7,19.1,1,--.--,0,66,--.--,0,0,0002:53:13,0,1,1,25.14,-0.17,3,33,98,1,00H:00M:01S,1,-4.27,1,1,1,25.14,0.17,7,--.--,99,--.--,--:--:--,1,4.27,08:39:14,01:39:14,16/07/2024,--.--,--.--,--.--,--.--,--.--,--.--,--.--,--.--,--.--,--.--,--.--,--.--,0,--.--,--.--,--.--,--.--,--.--,--.--,--.--,--.--,--.--,--.--,--.--,--.--,--.--,--.--,--.--,--.--,0,0,0,0,0,0,0,0,0,0.4,0.4,0.4,0.4,true,false,true,false,false,true,true,true,false,false,false,false,--.--,--.--,0,0,--.--,0,0.31,0.57,0,0,--.--,--.--,--.--,--.--,--.--,0,0,0,0,15.9802227,108.2616754,49PBT 06898 68677,1.7,2.2,199.9,3,6,--.--,--.--,,--.--,--.--,--.--,0,0,--.--,--.--,0,-0.7,0,-0.4,-0.7,-0.2,0.4,--.--,--.--,--.--,--.--,--.--,--.--,0,0,183.9,-1.4,3.4,-0.6,32.97,--.--,--.--,0,0,0,0,0.1,0,0,0,--.--,--.--,--.--
2024-07-16 08:39:15.880,-3.1,2.8,174,-3.5,7.4,-17.9,0.8,0,0,0.3,0.4,68.1,65.2,0.188,0,0,0,0,00:00:00,0.6,0.2,1,--.--,0,--.--,--.--,0,0,0002:53:13,0,1,1,25.14,-0.17,3,33,98,1,00H:00M:01S,1,-4.27,1,1,1,25.14,0.17,7,--.--,99,--.--,--:--:--,1,4.27,08:39:15,01:39:15,16/07/2024,--.--,--.--,--.--,--.--,--.--,--.--,--.--,--.--,--.--,--.--,--.--,--.--,0,--.--,--.--,--.--,--.--,--.--,--.--,--.--,--.--,--.--,--.--,--.--,--.--,--.--,--.--,--.--,--.--,0,0,0,0,0,0,0,0,0,0.4,0.4,0.4,0.4,true,false,true,false,false,true,true,true,false,false,false,false,--.--,--.--,0,0,--.--,0,0.31,0.57,0,0,--.--,--.--,--.--,--.--,--.--,0,0,0,0,15.9802179,108.2616686,49PBT 06897 68676,1.7,2.2,200.4,3,6,--.--,--.--,,--.--,--.--,--.--,0,0,--.--,--.--,0,-0.7,0,-0.4,-0.7,-0.2,0.4,--.--,--.--,--.--,--.--,--.--,--.--,0,0,183.9,-1.4,3.4,-0.6,32.97,--.--,--.--,0,0,0,0,0.1,0,0,0,--.--,--.--,--.--
2024-07-16 08:39:16.879,-0.7,6.8,168,-13,8.5,19.5,0.4,0,0,0.1,0.4,68.1,65.1,0.468,0,0,0,0,00:00:00,2.1,4.7,1,--.--,0,32,--.--,0,0,0002:53:13,0,1,1,25.14,-0.17,3,33,98,1,00H:00M:01S,1,-4.27,1,1,1,25.14,0.17,7,--.--,99,--.--,--:--:--,1,4.27,08:39:16,01:39:16,16/07/2024,--.--,--.--,--.--,--.--,--.--,--.--,--.--,--.--,--.--,--.--,--.--,--.--,0,--.--,--.--,--.--,--.--,--.--,--.--,--.--,--.--,--.--,--.--,--.--,--.--,--.--,--.--,--.--,--.--,0,0,0,0,0,0,0,0,0,0.4,0.4,0.4,0.4,true,false,true,false,false,true,true,true,false,false,false,false,--.--,--.--,0,0,--.--,0,0.31,0.57,0,0,--.--,--.--,--.--,--.--,--.--,0,0,0,0,15.9802064,108.2616617,49PBT 06896 68675,1.7,2.2,195.3,3,6,--.--,--.--,,--.--,--.--,--.--,0,0,--.--,--.--,0,-0.7,0,-0.4,-0.7,-0.2,0.4,--.--,--.--,--.--,--.--,--.--,--.--,0,0,171.9,-0.8,-1.3,0.5,32.97,--.--,--.--,0,0,0,0,0.1,0,0,0,--.--,--.--,--.--
2024-07-16 08:39:17.879,0,3.3,164,6.8,8.9,1.1,0.6,0,0,0.1,0.3,68,65.1,0.27,0,0,0,0,00:00:00,3,4.3,1,--.--,0,30,--.--,0,0,0002:53:13,0,1,1,25.14,-0.17,3,33,98,1,00H:00M:01S,1,-4.27,1,1,1,25.14,0.17,7,--.--,99,--.--,--:--:--,1,4.27,08:39:17,01:39:17,16/07/2024,--.--,--.--,--.--,--.--,--.--,--.--,--.--,--.--,--.--,--.--,--.--,--.--,0,--.--,--.--,--.--,--.--,--.--,--.--,--.--,--.--,--.--,--.--,--.--,--.--,--.--,--.--,--.--,--.--,0,0,0,0,0,0,0,0,0,0.4,0.4,0.4,0.4,true,false,true,false,false,true,true,true,false,false,false,false,--.--,--.--,0,0,--.--,0,0.31,0.57,0,0,--.--,--.--,--.--,--.--,--.--,0,0,0,0,15.9801989,108.2616582,49PBT 06896 68674,1.7,2.2,185.5,3,6,--.--,--.--,,--.--,--.--,--.--,0,0,--.--,--.--,0,0,0.4,-0.3,0.3,0.4,0.3,--.--,--.--,--.--,--.--,--.--,--.--,0,0,170.7,4.8,-8.6,-0.1,33.04,--.--,--.--,0,0,0,0,0.1,0,0,0,--.--,--.--,--.--
2024-07-16 08:39:18.880,-2.5,4.9,163,-2.8,3.8,11.4,0.7,0,0,0,0.3,68,65,0.042,0,0,0,0,00:00:00,4.5,5.1,1,--.--,0,28,--.--,0,0,0002:53:13,0,1,1,25.14,-0.17,3,33,98,1,00H:00M:01S,1,-4.27,1,1,1,25.13,0.17,8,--.--,99,--.--,--:--:--,1,4.27,08:39:18,01:39:18,16/07/2024,--.--,--.--,--.--,--.--,--.--,--.--,--.--,--.--,--.--,--.--,--.--,--.--,0,--.--,--.--,--.--,--.--,--.--,--.--,--.--,--.--,--.--,--.--,--.--,--.--,--.--,--.--,--.--,--.--,0,0,0,0,0,0,0,0,0,0.4,0.4,0.4,0.4,true,false,true,false,false,true,true,true,false,false,false,false,--.--,--.--,0,0,--.--,0,0.31,0.57,0,0,--.--,--.--,--.--,--.--,--.--,0,0,0,0,15.9801866,108.2616525,49PBT 06895 68673,1.7,2.2,192.8,3,6,--.--,--.--,,--.--,--.--,--.--,0,0,--.--,--.--,0,0,0.4,-0.3,0.3,0.4,0.3,--.--,--.--,--.--,--.--,--.--,--.--,0,0,163.8,-8,-15.9,0.6,33.04,--.--,--.--,0,0,0,0,0.1,0,0,0,--.--,--.--,--.--
2024-07-16 08:39:19.879,0.4,6.4,165,18,-8.2,-4.1,0.7,0,0,-0.2,0.3,68,65,0.264,0,0,0,0,00:00:00,5,7.2,1,--.--,0,26,--.--,0,0,0002:53:13,0,1,1,25.14,-0.17,3,33,98,1,00H:00M:01S,1,-4.27,1,1,1,25.13,0.17,8,--.--,99,--.--,--:--:--,1,4.27,08:39:19,01:39:19,16/07/2024,--.--,--.--,--.--,--.--,--.--,--.--,--.--,--.--,--.--,--.--,--.--,--.--,0,--.--,--.--,--.--,--.--,--.--,--.--,--.--,--.--,--.--,--.--,--.--,--.--,--.--,--.--,--.--,--.--,0,0,0,0,0,0,0,0,0,0.4,0.4,0.4,0.4,true,false,true,false,false,true,true,true,false,false,false,false,--.--,--.--,0,0,--.--,0,0.31,0.57,0,0,--.--,--.--,--.--,--.--,--.--,0,0,0,0,15.9801818,108.2616513,49PBT 06895 68672,1.7,2.2,190.7,3,6,--.--,--.--,,--.--,--.--,--.--,0,0,--.--,--.--,0,0,0.4,-0.3,0.3,0.4,0.3,--.--,--.--,--.--,--.--,--.--,--.--,0,0,163.6,4.4,-22.7,0.1,33.04,--.--,--.--,0,0,0,0,0.1,0,0,0,--.--,--.--,--.--
2024-07-16 08:39:20.880,-9.3,0.3,148,31.1,-13.4,-28.7,0.6,0,0,0.1,0.3,68.1,65.1,0.304,0,0,0,0,00:00:00,1,0.5,1,--.--,0,--.--,--.--,0,0,0002:53:13,0,1,1,25.14,-0.17,3,33,98,1,00H:00M:01S,1,-4.27,1,1,1,25.13,0.17,8,--.--,99,--.--,--:--:--,1,4.27,08:39:20,01:39:20,16/07/2024,--.--,--.--,--.--,--.--,--.--,--.--,--.--,--.--,--.--,--.--,--.--,--.--,0,--.--,--.--,--.--,--.--,--.--,--.--,--.--,--.--,--.--,--.--,--.--,--.--,--.--,--.--,--.--,--.--,0,0,0,0,0,0,0,0,0,0.4,0.4,0.4,0.4,true,false,true,false,false,true,true,true,false,false,false,false,--.--,--.--,0,0,--.--,0,0.31,0.57,0,0,--.--,--.--,--.--,--.--,--.--,0,0,0,0,15.9801625,108.2616522,49PBT 06895 68670,1.7,2.2,184.2,3,6,--.--,--.--,,--.--,--.--,--.--,0,0,--.--,--.--,0,0.8,0.5,-0.3,0.6,0.3,0.1,--.--,--.--,--.--,--.--,--.--,--.--,0,0,163.6,4.4,-22.7,0.1,33.11,--.--,--.--,0,0,0,0,0.1,0,0,0,--.--,--.--,--.--
2024-07-16 08:39:21.880,-9.5,-0.2,132,25.8,-32.9,8.1,0.7,0,0,0.1,0.3,68.1,65.1,0.285,0,0,0,0,00:00:00,2.3,1.5,1,--.--,0,5,--.--,0,0,0002:53:13,0,1,1,25.14,-0.17,3,33,98,1,00H:00M:01S,1,-4.27,1,1,1,25.13,0.17,8,--.--,99,--.--,--:--:--,1,4.27,08:39:21,01:39:21,16/07/2024,--.--,--.--,--.--,--.--,--.--,--.--,--.--,--.--,--.--,--.--,--.--,--.--,0,--.--,--.--,--.--,--.--,--.--,--.--,--.--,--.--,--.--,--.--,--.--,--.--,--.--,--.--,--.--,--.--,0,0,0,0,0,0,0,0,0,0.4,0.4,0.4,0.4,true,false,true,false,false,true,true,true,false,false,false,false,--.--,--.--,0,0,--.--,0,0.31,0.57,0,0,--.--,--.--,--.--,--.--,--.--,0,0,0,0,15.9801506,108.2616494,49PBT 06895 68669,1.7,2.2,193.4,3,6,--.--,--.--,,--.--,--.--,--.--,0,0,--.--,--.--,0,0.8,0.5,-0.3,0.6,0.3,0.1,--.--,--.--,--.--,--.--,--.--,--.--,0,0,136.3,30,2.7,0.9,33.11,--.--,--.--,0,0,0,0,0.1,0,0,0,--.--,--.--,--.--
2024-07-16 08:39:22.880,-8.3,1.6,144,5.9,-14.7,24.4,1.1,0,0,-0.1,0.3,68.1,65.1,0.457,0,0,0,0,00:00:00,3.1,2.8,1,--.--,0,12,--.--,0,0,0002:53:13,0,1,1,25.14,-0.17,3,33,98,1,00H:00M:01S,1,-4.27,1,1,1,25.13,0.17,8,--.--,99,--.--,--:--:--,1,4.27,08:39:22,01:39:22,16/07/2024,--.--,--.--,--.--,--.--,--.--,--.--,--.--,--.--,--.--,--.--,--.--,--.--,0,--.--,--.--,--.--,--.--,--.--,--.--,--.--,--.--,--.--,--.--,--.--,--.--,--.--,--.--,--.--,--.--,0,0,0,0,0,0,0,0,0,0.4,0.4,0.4,0.4,true,false,true,false,false,true,true,true,false,false,false,false,--.--,--.--,0,0,--.--,0,0.31,0.57,0,0,--.--,--.--,--.--,--.--,--.--,0,0,0,0,15.980144,108.2616453,49PBT 06894 68668,1.7,2.2,203.5,3,6,--.--,--.--,,--.--,--.--,--.--,0,0,--.--,--.--,0,0.7,-0.4,-0.3,0.7,-0.8,-0.1,--.--,--.--,--.--,--.--,--.--,--.--,0,0,140.8,10.2,-2.5,-0.3,33.18,--.--,--.--,0,0,0,0,0.1,0,0,0,--.--,--.--,--.--
2024-07-16 08:39:23.879,-6.6,2.4,173,-6.7,-0.5,18.5,1.1,0,0,-0.2,0.3,68.1,65.1,0.277,0,0,0,0,00:00:00,4.9,4.2,1,--.--,0,26,--.--,0,0,0002:53:13,0,1,1,25.14,-0.17,3,33,98,1,00H:00M:01S,1,-4.27,1,1,1,25.13,0.17,8,--.--,99,--.--,--:--:--,1,4.27,08:39:23,01:39:23,16/07/2024,--.--,--.--,--.--,--.--,--.--,--.--,--.--,--.--,--.--,--.--,--.--,--.--,0,--.--,--.--,--.--,--.--,--.--,--.--,--.--,--.--,--.--,--.--,--.--,--.--,--.--,--.--,--.--,--.--,0,0,0,0,0,0,0,0,0,0.4,0.4,0.4,0.4,true,false,true,false,false,true,true,true,false,false,false,false,--.--,--.--,0,0,--.--,0,0.31,0.57,0,0,--.--,--.--,--.--,--.--,--.--,0,0,0,0,15.9801322,108.2616312,49PBT 06893 68667,1.7,2.2,230.6,3,6,--.--,--.--,,--.--,--.--,--.--,0,0,--.--,--.--,0,0.7,-0.4,-0.3,0.7,-0.8,-0.1,--.--,--.--,--.--,--.--,--.--,--.--,0,0,171.5,18.2,-6.2,-1.1,33.18,--.--,--.--,0,0,0,0,0.1,0,0,0,--.--,--.--,--.--
