Timestamp,roll,pitch,heading,rollRate,pitchRate,yawRate,groundSpeed,airSpeed,airSpeedSetpoint,climbRate,altitudeRelative,altitudeAMSL,altitudeAboveTerr,altitudeTuning,altitudeTuningSetpoint,xTrackError,rangeFinderDist,flightDistance,flightTime,distanceToHome,timeToHome,missionItemIndex,headingToNextWP,distanceToNextWP,headingToHome,distanceToGCS,throttlePct,imuTemp,hobbs,battery0.id,battery0.batteryFunction,battery0.batteryType,battery0.voltage,battery0.current,battery0.mahConsumed,battery0.temperature,battery0.percentRemaining,battery0.timeRemaining,battery0.timeRemainingStr,battery0.chargeState,battery0.instantPower,battery1.id,battery1.batteryFunction,battery1.batteryType,battery1.voltage,battery1.current,battery1.mahConsumed,battery1.temperature,battery1.percentRemaining,battery1.timeRemaining,battery1.timeRemainingStr,battery1.chargeState,battery1.instantPower,clock.currentTime,clock.currentUTCTime,clock.currentDate,distanceSensor.rotationNone,distanceSensor.rotationYaw45,distanceSensor.rotationYaw90,distanceSensor.rotationYaw135,distanceSensor.rotationYaw180,distanceSensor.rotationYaw225,distanceSensor.rotationYaw270,distanceSensor.rotationYaw315,distanceSensor.rotationPitch90,distanceSensor.rotationPitch270,distanceSensor.minDistance,distanceSensor.maxDistance,efi.health,efi.ecuIndex,efi.rpm,efi.fuelConsumed,efi.fuelFlow,efi.engineLoad,efi.sparkTime,efi.throttlePos,efi.baroPress,efi.intakePress,efi.intakeTemp,efi.cylinderTemp,efi.ignTime,efi.exGasTemp,efi.injTime,efi.throttleOut,efi.ptComp,escStatus.index,escStatus.rpm1,escStatus.rpm2,escStatus.rpm3,escStatus.rpm4,escStatus.current1,escStatus.current2,escStatus.current3,escStatus.current4,escStatus.voltage1,escStatus.voltage2,escStatus.voltage3,escStatus.voltage4,estimatorStatus.goodAttitudeEsimate,estimatorStatus.goodHorizVelEstimate,estimatorStatus.goodVertVelEstimate,estimatorStatus.goodHorizPosRelEstimate,estimatorStatus.goodHorizPosAbsEstimate,estimatorStatus.goodVertPosAbsEstimate,estimatorStatus.goodVertPosAGLEstimate,estimatorStatus.goodConstPosModeEstimate,estimatorStatus.goodPredHorizPosRelEstimate,estimatorStatus.goodPredHorizPosAbsEstimate,estimatorStatus.gpsGlitch,estimatorStatus.accelError,estimatorStatus.velRatio,estimatorStatus.horizPosRatio,estimatorStatus.vertPosRatio,estimatorStatus.magRatio,estimatorStatus.haglRatio,estimatorStatus.tasRatio,estimatorStatus.horizPosAccuracy,estimatorStatus.vertPosAccuracy,generator.status,generator.genSpeed,generator.batteryCurrent,generator.loadCurrent,generator.powerGenerated,generator.busVoltage,generator.batCurrentSetpoint,generator.rectifierTemp,generator.genTemp,generator.runtime,generator.timeMaintenance,gps.lat,gps.lon,gps.mgrs,gps.hdop,gps.vdop,gps.courseOverGround,gps.lock,gps.count,gps2.lat,gps2.lon,gps2.mgrs,gps2.hdop,gps2.vdop,gps2.courseOverGround,gps2.lock,gps2.count,hygrometer.temperature,hygrometer.humidity,hygrometer.hygrometerid,localPosition.x,localPosition.y,localPosition.z,localPosition.vx,localPosition.vy,localPosition.vz,localPositionSetpoint.x,localPositionSetpoint.y,localPositionSetpoint.z,localPositionSetpoint.vx,localPositionSetpoint.vy,localPositionSetpoint.vz,setpoint.roll,setpoint.pitch,setpoint.yaw,setpoint.rollRate,setpoint.pitchRate,setpoint.yawRate,temperature.temperature1,temperature.temperature2,temperature.temperature3,terrain.blocksPending,terrain.blocksLoaded,vibration.xAxis,vibration.yAxis,vibration.zAxis,vibration.clipCount1,vibration.clipCount2,vibration.clipCount3,wind.direction,wind.speed,wind.verticalSpeed
2024-07-16 10:01:52.476,-1.3,-2.2,252,-0.0,0.0,0.0,0.0,0.0,0.000,0.1,0.5,13.4,4.8,5.752,0.000,0.000,0.000,0.0,00:00:00,0.0,1.5,1,--.--,0,--.--,--.--,0,0,0003:06:40,0,1,1,25.19,-0.18,1,33,99,1,00H:00M:01S,1,-4.53,1,1,1,25.18,0.17,4,--.--,100,--.--,--:--:--,1,4.28,10:01:52,03:01:52,16/07/2024,--.--,--.--,--.--,--.--,--.--,--.--,--.--,--.--,--.--,--.--,--.--,--.--,0,--.--,--.--,--.--,--.--,--.--,--.--,--.--,--.--,--.--,--.--,--.--,--.--,--.--,--.--,--.--,--.--,0,0.000,0.000,0.000,0.000,0.000,0.000,0.000,0.000,0.400,0.400,0.400,0.400,true,true,true,true,true,true,true,false,true,true,false,false,0.02,0.01,0.04,0.00,--.--,0.00,0.34,0.33,0,0,--.--,--.--,--.--,--.--,--.--,0,0,0,0,15.9802374,108.2616684,49PBT 06897 68678,0.8,1.3,209.9,3,13,--.--,--.--,,--.--,--.--,--.--,0,0,--.--,--.--,0,-0.4,-0.7,-5.2,-0.0,0.0,-0.1,--.--,--.--,--.--,--.--,--.--,--.--,0.0,0.0,252.4,4.1,6.7,0.1,32.11,--.--,--.--,0,0,--.--,--.--,--.--,0,0,0,--.--,--.--,--.--
2024-07-16 10:01:53.475,-1.3,-2.2,252,0.0,0.0,0.0,0.0,0.0,0.000,0.1,0.5,13.4,4.8,5.846,0.000,0.000,0.000,0.0,00:00:00,0.1,2.0,1,--.--,0,--.--,--.--,0,0,0003:06:40,0,1,1,25.19,-0.18,1,33,99,1,00H:00M:01S,1,-4.53,1,1,1,25.18,0.17,4,--.--,100,--.--,--:--:--,1,4.28,10:01:53,03:01:53,16/07/2024,--.--,--.--,--.--,--.--,--.--,--.--,--.--,--.--,--.--,--.--,--.--,--.--,0,--.--,--.--,--.--,--.--,--.--,--.--,--.--,--.--,--.--,--.--,--.--,--.--,--.--,--.--,--.--,--.--,0,0.000,0.000,0.000,0.000,0.000,0.000,0.000,0.000,0.400,0.400,0.400,0.400,true,true,true,true,true,true,true,false,true,true,false,false,0.02,0.01,0.04,0.00,--.--,0.00,0.34,0.33,0,0,--.--,--.--,--.--,--.--,--.--,0,0,0,0,15.9802379,108.2616690,49PBT 06897 68678,0.8,1.3,209.9,3,13,--.--,--.--,,--.--,--.--,--.--,0,0,--.--,--.--,0,-0.4,-0.7,-5.2,-0.0,0.0,-0.1,--.--,--.--,--.--,--.--,--.--,--.--,0.0,0.0,252.4,4.1,6.7,0.1,32.11,--.--,--.--,0,0,--.--,--.--,--.--,0,0,0,--.--,--.--,--.--
2024-07-16 10:01:54.476,-1.3,-2.2,252,0.0,0.0,-0.1,0.0,0.0,0.000,0.1,0.5,13.4,4.8,5.972,0.000,0.000,0.000,0.0,00:00:00,0.1,2.1,1,--.--,0,--.--,--.--,0,0,0003:06:40,0,1,1,25.19,-0.18,1,33,99,1,00H:00M:01S,1,-4.53,1,1,1,25.18,0.17,4,--.--,100,--.--,--:--:--,1,4.28,10:01:54,03:01:54,16/07/2024,--.--,--.--,--.--,--.--,--.--,--.--,--.--,--.--,--.--,--.--,--.--,--.--,0,--.--,--.--,--.--,--.--,--.--,--.--,--.--,--.--,--.--,--.--,--.--,--.--,--.--,--.--,--.--,--.--,0,0.000,0.000,0.000,0.000,0.000,0.000,0.000,0.000,0.400,0.400,0.400,0.400,true,true,true,true,true,true,true,false,true,true,false,false,0.02,0.01,0.04,0.00,--.--,0.00,0.34,0.33,0,0,--.--,--.--,--.--,--.--,--.--,0,0,0,0,15.9802373,108.2616686,49PBT 06897 68678,0.7,1.1,209.9,3,14,--.--,--.--,,--.--,--.--,--.--,0,0,--.--,--.--,0,-0.4,-0.7,-5.2,-0.0,0.0,-0.1,--.--,--.--,--.--,--.--,--.--,--.--,0.0,0.0,252.4,4.1,6.7,0.1,32.11,--.--,--.--,0,0,0.0,0.0,0.0,0,0,0,--.--,--.--,--.--
2024-07-16 10:01:55.475,-1.3,-2.2,252,-0.0,0.0,-0.0,0.0,0.0,0.000,0.1,0.5,13.4,4.8,6.090,0.000,0.000,0.000,0.0,00:00:00,0.1,2.3,1,--.--,0,--.--,--.--,0,0,0003:06:40,0,1,1,25.19,-0.18,1,33,99,1,00H:00M:01S,1,-4.53,1,1,1,25.18,0.17,4,--.--,100,--.--,--:--:--,1,4.28,10:01:55,03:01:55,16/07/2024,--.--,--.--,--.--,--.--,--.--,--.--,--.--,--.--,--.--,--.--,--.--,--.--,0,--.--,--.--,--.--,--.--,--.--,--.--,--.--,--.--,--.--,--.--,--.--,--.--,--.--,--.--,--.--,--.--,0,0.000,0.000,0.000,0.000,0.000,0.000,0.000,0.000,0.400,0.400,0.400,0.400,true,true,true,true,true,true,true,false,true,true,false,false,0.02,0.01,0.04,0.00,--.--,0.00,0.34,0.33,0,0,--.--,--.--,--.--,--.--,--.--,0,0,0,0,15.9802357,108.2616675,49PBT 06897 68678,0.7,1.1,209.9,3,14,--.--,--.--,,--.--,--.--,--.--,0,0,--.--,--.--,0,-0.4,-0.7,-5.2,-0.0,0.0,-0.1,--.--,--.--,--.--,--.--,--.--,--.--,0.0,0.0,252.4,4.1,6.7,0.1,32.11,--.--,--.--,0,0,0.0,0.0,0.0,0,0,0,--.--,--.--,--.--
2024-07-16 10:01:56.475,-1.3,-2.2,252,0.0,-0.0,0.0,0.0,0.0,0.000,0.1,0.3,13.8,4.8,6.174,0.000,0.000,0.000,0.0,00:00:00,0.1,3.4,1,--.--,0,--.--,--.--,0,0,0003:06:40,0,1,1,25.19,-0.18,1,33,99,1,00H:00M:01S,1,-4.53,1,1,1,25.18,0.17,4,--.--,100,--.--,--:--:--,1,4.28,10:01:56,03:01:56,16/07/2024,--.--,--.--,--.--,--.--,--.--,--.--,--.--,--.--,--.--,--.--,--.--,--.--,0,--.--,--.--,--.--,--.--,--.--,--.--,--.--,--.--,--.--,--.--,--.--,--.--,--.--,--.--,--.--,--.--,0,0.000,0.000,0.000,0.000,0.000,0.000,0.000,0.000,0.400,0.400,0.400,0.400,true,true,true,true,true,true,true,false,true,true,false,false,0.02,0.01,0.04,0.00,--.--,0.00,0.34,0.33,0,0,--.--,--.--,--.--,--.--,--.--,0,0,0,0,15.9802346,108.2616667,49PBT 06897 68678,0.7,1.1,209.9,3,14,--.--,--.--,,--.--,--.--,--.--,0,0,--.--,--.--,0,-0.5,-0.7,-5.6,-0.0,0.0,-0.1,--.--,--.--,--.--,--.--,--.--,--.--,0.0,0.0,252.4,4.1,6.7,0.1,32.24,--.--,--.--,0,0,0.0,0.0,0.0,0,0,0,--.--,--.--,--.--
2024-07-16 10:01:57.476,-1.3,-2.2,252,-0.0,0.1,-0.0,0.0,0.0,0.000,0.1,0.3,13.8,4.8,6.177,0.000,0.000,0.000,0.0,00:00:00,0.1,2.4,1,--.--,0,--.--,--.--,0,0,0003:06:40,0,1,1,25.19,-0.17,1,34,99,1,00H:00M:01S,1,-4.28,1,1,1,25.18,0.17,4,--.--,100,--.--,--:--:--,1,4.28,10:01:57,03:01:57,16/07/2024,--.--,--.--,--.--,--.--,--.--,--.--,--.--,--.--,--.--,--.--,--.--,--.--,0,--.--,--.--,--.--,--.--,--.--,--.--,--.--,--.--,--.--,--.--,--.--,--.--,--.--,--.--,--.--,--.--,0,0.000,0.000,0.000,0.000,0.000,0.000,0.000,0.000,0.400,0.400,0.400,0.400,true,true,true,true,true,true,true,false,true,true,false,false,0.02,0.06,0.02,0.00,--.--,0.00,0.39,0.37,0,0,--.--,--.--,--.--,--.--,--.--,0,0,0,0,15.9802326,108.2616654,49PBT 06897 68678,0.8,1.3,209.9,3,13,--.--,--.--,,--.--,--.--,--.--,0,0,--.--,--.--,0,-0.5,-0.7,-5.6,-0.0,0.0,-0.1,--.--,--.--,--.--,--.--,--.--,--.--,0.0,0.0,252.4,4.0,6.7,0.1,32.24,--.--,--.--,0,0,0.0,0.0,0.0,0,0,0,--.--,--.--,--.--
2024-07-16 10:01:58.476,-1.3,-2.2,252,-0.0,0.0,0.0,0.0,0.0,0.000,0.0,0.3,13.8,4.8,6.171,0.000,0.000,0.000,0.0,00:00:00,0.3,6.2,1,--.--,0,--.--,--.--,0,0,0003:06:40,0,1,1,25.19,-0.17,1,34,99,1,00H:00M:01S,1,-4.28,1,1,1,25.18,0.17,4,--.--,100,--.--,--:--:--,1,4.28,10:01:58,03:01:58,16/07/2024,--.--,--.--,--.--,--.--,--.--,--.--,--.--,--.--,--.--,--.--,--.--,--.--,0,--.--,--.--,--.--,--.--,--.--,--.--,--.--,--.--,--.--,--.--,--.--,--.--,--.--,--.--,--.--,--.--,0,0.000,0.000,0.000,0.000,0.000,0.000,0.000,0.000,0.400,0.400,0.400,0.400,true,true,true,true,true,true,true,false,true,true,false,false,0.02,0.06,0.02,0.00,--.--,0.00,0.39,0.37,0,0,--.--,--.--,--.--,--.--,--.--,0,0,0,0,15.9802327,108.2616655,49PBT 06897 68678,0.8,1.3,209.9,3,13,--.--,--.--,,--.--,--.--,--.--,0,0,--.--,--.--,0,-0.5,-0.7,-5.6,-0.0,0.0,-0.1,--.--,--.--,--.--,--.--,--.--,--.--,0.0,0.0,252.4,4.1,6.7,0.1,32.24,--.--,--.--,0,0,0.0,0.0,0.0,0,0,0,--.--,--.--,--.--
2024-07-16 10:01:59.475,-1.3,-2.2,252,-0.0,0.0,-0.0,0.0,0.0,0.000,0.0,0.3,13.9,4.8,6.171,0.000,0.000,0.000,0.0,00:00:00,0.4,6.2,1,--.--,0,--.--,--.--,0,0,0003:06:40,0,1,1,25.19,-0.17,1,34,99,1,00H:00M:01S,1,-4.28,1,1,1,25.18,0.17,4,--.--,100,--.--,--:--:--,1,4.28,10:01:59,03:01:59,16/07/2024,--.--,--.--,--.--,--.--,--.--,--.--,--.--,--.--,--.--,--.--,--.--,--.--,0,--.--,--.--,--.--,--.--,--.--,--.--,--.--,--.--,--.--,--.--,--.--,--.--,--.--,--.--,--.--,--.--,0,0.000,0.000,0.000,0.000,0.000,0.000,0.000,0.000,0.400,0.400,0.400,0.400,true,true,true,true,true,true,true,false,true,true,false,false,0.02,0.06,0.02,0.00,--.--,0.00,0.39,0.37,0,0,--.--,--.--,--.--,--.--,--.--,0,0,0,0,15.9802328,108.2616657,49PBT 06897 68678,0.8,1.3,209.9,3,13,--.--,--.--,,--.--,--.--,--.--,0,0,--.--,--.--,0,-0.8,-0.9,-5.7,-0.0,0.0,-0.0,--.--,--.--,--.--,--.--,--.--,--.--,0.0,0.0,252.4,4.1,6.7,0.1,32.34,--.--,--.--,0,0,0.0,0.0,0.0,0,0,0,--.--,--.--,--.--
2024-07-16 10:02:00.476,-1.2,-2.2,252,-0.0,0.0,0.0,0.0,0.0,0.000,0.0,0.3,13.9,4.8,6.139,0.000,0.000,0.000,0.0,00:00:00,0.5,11.6,1,--.--,0,--.--,--.--,0,0,0003:06:40,0,1,1,25.19,-0.17,1,34,99,1,00H:00M:01S,1,-4.28,1,1,1,25.18,0.17,4,--.--,100,--.--,--:--:--,1,4.28,10:02:00,03:02:00,16/07/2024,--.--,--.--,--.--,--.--,--.--,--.--,--.--,--.--,--.--,--.--,--.--,--.--,0,--.--,--.--,--.--,--.--,--.--,--.--,--.--,--.--,--.--,--.--,--.--,--.--,--.--,--.--,--.--,--.--,0,0.000,0.000,0.000,0.000,0.000,0.000,0.000,0.000,0.400,0.400,0.400,0.400,true,true,true,true,true,true,true,false,true,true,false,false,0.02,0.06,0.02,0.00,--.--,0.00,0.39,0.37,0,0,--.--,--.--,--.--,--.--,--.--,0,0,0,0,15.9802330,108.2616658,49PBT 06897 68678,0.8,1.3,209.9,3,13,--.--,--.--,,--.--,--.--,--.--,0,0,--.--,--.--,0,-0.8,-0.9,-5.7,-0.0,0.0,-0.0,--.--,--.--,--.--,--.--,--.--,--.--,0.0,0.0,252.4,4.0,6.6,0.1,32.34,--.--,--.--,0,0,0.0,0.0,0.0,0,0,0,--.--,--.--,--.--
2024-07-16 10:02:01.476,-1.2,-2.2,252,0.0,-0.0,0.0,0.0,0.0,0.000,0.0,0.3,13.9,4.8,6.118,0.000,0.000,0.000,0.0,00:00:00,0.5,18.1,1,--.--,0,--.--,--.--,0,0,0003:06:40,0,1,1,25.19,-0.17,1,34,99,1,00H:00M:01S,1,-4.28,1,1,1,25.18,0.17,4,--.--,100,--.--,--:--:--,1,4.28,10:02:01,03:02:01,16/07/2024,--.--,--.--,--.--,--.--,--.--,--.--,--.--,--.--,--.--,--.--,--.--,--.--,0,--.--,--.--,--.--,--.--,--.--,--.--,--.--,--.--,--.--,--.--,--.--,--.--,--.--,--.--,--.--,--.--,0,0.000,0.000,0.000,0.000,0.000,0.000,0.000,0.000,0.400,0.400,0.400,0.400,true,true,true,true,true,true,true,false,true,true,false,false,0.02,0.06,0.02,0.00,--.--,0.00,0.39,0.37,0,0,--.--,--.--,--.--,--.--,--.--,0,0,0,0,15.9802331,108.2616659,49PBT 06897 68678,0.8,1.3,209.9,3,13,--.--,--.--,,--.--,--.--,--.--,0,0,--.--,--.--,0,-0.8,-0.9,-5.7,-0.0,0.0,-0.0,--.--,--.--,--.--,--.--,--.--,--.--,0.0,0.0,252.4,4.0,6.6,0.1,32.34,--.--,--.--,0,0,0.0,0.0,0.0,0,0,0,--.--,--.--,--.--
2024-07-16 10:02:02.476,-1.2,-2.2,252,-0.0,0.1,0.0,0.0,0.0,0.000,0.0,0.3,13.8,4.8,6.087,0.000,0.000,0.000,0.0,00:00:00,0.5,20.9,1,--.--,0,--.--,--.--,0,0,0003:06:40,0,1,1,25.19,-0.17,1,34,99,1,00H:00M:01S,1,-4.28,1,1,1,25.18,0.17,4,--.--,100,--.--,--:--:--,1,4.28,10:02:02,03:02:02,16/07/2024,--.--,--.--,--.--,--.--,--.--,--.--,--.--,--.--,--.--,--.--,--.--,--.--,0,--.--,--.--,--.--,--.--,--.--,--.--,--.--,--.--,--.--,--.--,--.--,--.--,--.--,--.--,--.--,--.--,0,0.000,0.000,0.000,0.000,0.000,0.000,0.000,0.000,0.400,0.400,0.400,0.400,true,true,true,true,true,true,true,false,true,true,false,false,0.02,0.06,0.02,0.00,--.--,0.00,0.39,0.37,0,0,--.--,--.--,--.--,--.--,--.--,0,0,0,0,15.9802332,108.2616661,49PBT 06897 68678,0.8,1.3,209.9,3,13,--.--,--.--,,--.--,--.--,--.--,0,0,--.--,--.--,0,-0.9,-0.9,-5.6,-0.0,0.0,-0.0,--.--,--.--,--.--,--.--,--.--,--.--,0.0,0.0,252.4,3.9,6.5,0.1,32.46,--.--,--.--,0,0,0.0,0.0,0.0,0,0,0,--.--,--.--,--.--
2024-07-16 10:02:03.476,-1.2,-2.2,252,-0.1,0.1,0.0,0.0,0.0,0.000,0.0,0.3,13.8,4.8,6.056,0.000,0.000,0.000,0.0,00:00:00,0.5,17.4,1,--.--,0,--.--,--.--,0,0,0003:06:40,0,1,1,25.18,-0.17,1,34,99,1,00H:00M:01S,1,-4.28,1,1,1,25.18,0.17,5,--.--,100,--.--,--:--:--,1,4.28,10:02:03,03:02:03,16/07/2024,--.--,--.--,--.--,--.--,--.--,--.--,--.--,--.--,--.--,--.--,--.--,--.--,0,--.--,--.--,--.--,--.--,--.--,--.--,--.--,--.--,--.--,--.--,--.--,--.--,--.--,--.--,--.--,--.--,0,0.000,0.000,0.000,0.000,0.000,0.000,0.000,0.000,0.400,0.400,0.400,0.400,true,true,true,true,true,true,true,false,true,true,false,false,0.02,0.01,0.02,0.00,--.--,0.00,0.32,0.41,0,0,--.--,--.--,--.--,--.--,--.--,0,0,0,0,15.9802332,108.2616663,49PBT 06897 68678,0.8,1.3,209.9,3,13,--.--,--.--,,--.--,--.--,--.--,0,0,--.--,--.--,0,-0.9,-0.9,-5.6,-0.0,0.0,-0.0,--.--,--.--,--.--,--.--,--.--,--.--,0.0,0.0,252.4,3.9,6.5,0.1,32.46,--.--,--.--,0,0,0.0,0.0,0.0,0,0,0,--.--,--.--,--.--
2024-07-16 10:02:04.475,-1.2,-2.2,252,-0.0,-0.0,-0.0,0.0,0.0,0.000,0.0,0.3,13.8,4.8,6.043,0.000,0.000,0.000,0.0,00:00:00,0.5,15.3,1,--.--,0,--.--,--.--,0,0,0003:06:40,0,1,1,25.18,-0.17,1,34,99,1,00H:00M:01S,1,-4.28,1,1,1,25.18,0.17,5,--.--,100,--.--,--:--:--,1,4.28,10:02:04,03:02:04,16/07/2024,--.--,--.--,--.--,--.--,--.--,--.--,--.--,--.--,--.--,--.--,--.--,--.--,0,--.--,--.--,--.--,--.--,--.--,--.--,--.--,--.--,--.--,--.--,--.--,--.--,--.--,--.--,--.--,--.--,0,0.000,0.000,0.000,0.000,0.000,0.000,0.000,0.000,0.400,0.400,0.400,0.400,true,true,true,true,true,true,true,false,true,true,false,false,0.02,0.01,0.02,0.00,--.--,0.00,0.32,0.41,0,0,--.--,--.--,--.--,--.--,--.--,0,0,0,0,15.9802332,108.2616664,49PBT 06897 68678,0.8,1.3,209.9,3,13,--.--,--.--,,--.--,--.--,--.--,0,0,--.--,--.--,0,-0.9,-0.9,-5.6,-0.0,0.0,-0.0,--.--,--.--,--.--,--.--,--.--,--.--,0.0,0.0,252.4,3.9,6.5,0.1,32.46,--.--,--.--,0,0,0.0,0.0,0.0,0,0,0,--.--,--.--,--.--
2024-07-16 10:02:05.475,-1.2,-2.2,252,0.0,0.0,-0.0,0.0,0.0,0.000,0.0,0.3,13.8,4.8,6.027,0.000,0.000,0.000,0.0,00:00:00,0.5,14.1,1,--.--,0,--.--,--.--,0,0,0003:06:40,0,1,1,25.18,-0.17,1,34,99,1,00H:00M:01S,1,-4.28,1,1,1,25.18,0.17,5,--.--,100,--.--,--:--:--,1,4.28,10:02:05,03:02:05,16/07/2024,--.--,--.--,--.--,--.--,--.--,--.--,--.--,--.--,--.--,--.--,--.--,--.--,0,--.--,--.--,--.--,--.--,--.--,--.--,--.--,--.--,--.--,--.--,--.--,--.--,--.--,--.--,--.--,--.--,0,0.000,0.000,0.000,0.000,0.000,0.000,0.000,0.000,0.400,0.400,0.400,0.400,true,true,true,true,true,true,true,false,true,true,false,false,0.02,0.01,0.02,0.00,--.--,0.00,0.32,0.41,0,0,--.--,--.--,--.--,--.--,--.--,0,0,0,0,15.9802333,108.2616668,49PBT 06897 68678,0.8,1.3,209.9,3,13,--.--,--.--,,--.--,--.--,--.--,0,0,--.--,--.--,0,-0.9,-0.9,-5.6,-0.0,0.0,-0.0,--.--,--.--,--.--,--.--,--.--,--.--,0.0,0.0,252.4,3.9,6.5,0.1,32.46,--.--,--.--,0,0,0.0,0.0,0.0,0,0,0,--.--,--.--,--.--
2024-07-16 10:02:06.475,-1.2,-2.2,252,-0.0,0.0,-0.0,0.0,0.0,0.000,-0.0,0.2,13.7,4.8,5.979,0.000,0.000,0.000,0.0,00:00:00,0.5,13.6,1,--.--,0,--.--,--.--,0,0,0003:06:40,0,1,1,25.18,-0.17,1,34,99,1,00H:00M:01S,1,-4.28,1,1,1,25.18,0.17,5,--.--,100,--.--,--:--:--,1,4.28,10:02:06,03:02:06,16/07/2024,--.--,--.--,--.--,--.--,--.--,--.--,--.--,--.--,--.--,--.--,--.--,--.--,0,--.--,--.--,--.--,--.--,--.--,--.--,--.--,--.--,--.--,--.--,--.--,--.--,--.--,--.--,--.--,--.--,0,0.000,0.000,0.000,0.000,0.000,0.000,0.000,0.000,0.400,0.400,0.400,0.400,true,true,true,true,true,true,true,false,true,true,false,false,0.02,0.01,0.02,0.00,--.--,0.00,0.32,0.41,0,0,--.--,--.--,--.--,--.--,--.--,0,0,0,0,15.9802332,108.2616669,49PBT 06897 68678,0.8,1.3,209.9,3,13,--.--,--.--,,--.--,--.--,--.--,0,0,--.--,--.--,0,-0.9,-0.9,-5.5,0.0,0.0,-0.0,--.--,--.--,--.--,--.--,--.--,--.--,0.0,0.0,252.4,3.9,6.5,0.1,32.56,--.--,--.--,0,0,0.0,0.0,0.0,0,0,0,--.--,--.--,--.--
2024-07-16 10:02:07.476,-1.2,-2.2,252,-0.0,-0.0,-0.0,0.0,0.0,0.000,-0.0,0.2,13.7,4.8,5.943,0.000,0.000,0.000,0.0,00:00:00,0.5,13.4,1,--.--,0,--.--,--.--,0,0,0003:06:40,0,1,1,25.18,-0.17,1,34,99,1,00H:00M:01S,1,-4.28,1,1,1,25.18,0.17,5,--.--,100,--.--,--:--:--,1,4.28,10:02:07,03:02:07,16/07/2024,--.--,--.--,--.--,--.--,--.--,--.--,--.--,--.--,--.--,--.--,--.--,--.--,0,--.--,--.--,--.--,--.--,--.--,--.--,--.--,--.--,--.--,--.--,--.--,--.--,--.--,--.--,--.--,--.--,0,0.000,0.000,0.000,0.000,0.000,0.000,0.000,0.000,0.400,0.400,0.400,0.400,true,true,true,true,true,true,true,false,true,true,false,false,0.02,0.01,0.02,0.00,--.--,0.00,0.32,0.41,0,0,--.--,--.--,--.--,--.--,--.--,0,0,0,0,15.9802334,108.2616672,49PBT 06897 68678,0.8,1.3,209.9,3,13,--.--,--.--,,--.--,--.--,--.--,0,0,--.--,--.--,0,-0.9,-0.9,-5.5,0.0,0.0,-0.0,--.--,--.--,--.--,--.--,--.--,--.--,0.0,0.0,252.4,3.9,6.6,0.1,32.56,--.--,--.--,0,0,0.0,0.0,0.0,0,0,0,--.--,--.--,--.--
2024-07-16 10:02:08.476,-1.2,-2.2,252,-0.0,0.0,0.0,0.0,0.0,0.000,-0.0,0.1,13.6,4.8,5.917,0.000,0.000,0.000,0.0,00:00:00,0.5,12.6,1,--.--,0,--.--,--.--,0,0,0003:06:40,0,1,1,25.18,-0.17,1,34,99,1,00H:00M:01S,1,-4.28,1,1,1,25.18,0.17,5,--.--,100,--.--,--:--:--,1,4.28,10:02:08,03:02:08,16/07/2024,--.--,--.--,--.--,--.--,--.--,--.--,--.--,--.--,--.--,--.--,--.--,--.--,0,--.--,--.--,--.--,--.--,--.--,--.--,--.--,--.--,--.--,--.--,--.--,--.--,--.--,--.--,--.--,--.--,0,0.000,0.000,0.000,0.000,0.000,0.000,0.000,0.000,0.400,0.400,0.400,0.400,true,true,true,true,true,true,true,false,true,true,false,false,0.02,0.01,0.02,0.00,--.--,0.00,0.32,0.41,0,0,--.--,--.--,--.--,--.--,--.--,0,0,0,0,15.9802333,108.2616675,49PBT 06897 68678,0.8,1.3,209.9,3,13,--.--,--.--,,--.--,--.--,--.--,0,0,--.--,--.--,0,-0.9,-0.9,-5.4,0.0,0.0,0.0,--.--,--.--,--.--,--.--,--.--,--.--,0.0,0.0,252.4,3.9,6.6,0.1,32.66,--.--,--.--,0,0,0.0,0.0,0.0,0,0,0,--.--,--.--,--.--
2024-07-16 10:02:09.476,-1.2,-2.2,252,-0.0,0.0,-0.0,0.0,0.0,0.000,0.0,0.1,13.6,4.8,8.271,0.000,0.000,0.000,0.0,00:00:00,0.0,0.3,1,--.--,0,--.--,--.--,0,0,0003:06:40,0,1,1,25.18,-0.17,130,34,99,1,00H:00M:01S,1,-4.28,1,1,1,25.17,0.17,5,--.--,100,--.--,--:--:--,1,4.28,10:02:09,03:02:09,16/07/2024,--.--,--.--,--.--,--.--,--.--,--.--,--.--,--.--,--.--,--.--,--.--,--.--,0,--.--,--.--,--.--,--.--,--.--,--.--,--.--,--.--,--.--,--.--,--.--,--.--,--.--,--.--,--.--,--.--,0,0.000,0.000,0.000,0.000,0.000,0.000,0.000,0.000,0.400,0.400,0.400,0.400,true,true,true,true,true,true,true,false,true,true,false,false,0.03,0.01,0.13,0.00,--.--,0.00,0.32,1.59,0,0,--.--,--.--,--.--,--.--,--.--,0,0,0,0,15.9802333,108.2616677,49PBT 06897 68678,0.8,1.3,209.9,3,13,--.--,--.--,,--.--,--.--,--.--,0,0,--.--,--.--,0,-0.9,-0.9,-5.4,0.0,0.0,0.0,--.--,--.--,--.--,--.--,--.--,--.--,0.0,0.0,252.4,4.0,6.7,0.1,32.66,--.--,--.--,0,0,0.0,0.0,0.0,0,0,0,--.--,--.--,--.--
2024-07-16 10:02:10.476,-1.2,-2.2,252,-0.0,0.0,0.0,0.0,0.0,0.000,0.0,0.1,13.6,4.8,8.267,0.000,0.000,0.000,0.0,00:00:00,0.0,0.9,1,--.--,0,--.--,--.--,0,0,0003:06:40,0,1,1,25.18,-0.17,130,34,99,1,00H:00M:01S,1,-4.28,1,1,1,25.17,0.17,5,--.--,100,--.--,--:--:--,1,4.28,10:02:10,03:02:10,16/07/2024,--.--,--.--,--.--,--.--,--.--,--.--,--.--,--.--,--.--,--.--,--.--,--.--,0,--.--,--.--,--.--,--.--,--.--,--.--,--.--,--.--,--.--,--.--,--.--,--.--,--.--,--.--,--.--,--.--,0,0.000,0.000,0.000,0.000,0.000,0.000,0.000,0.000,0.400,0.400,0.400,0.400,true,true,true,true,true,true,true,false,true,true,false,false,0.03,0.01,0.13,0.00,--.--,0.00,0.32,1.59,0,0,--.--,--.--,--.--,--.--,--.--,0,0,0,0,15.9802335,108.2616681,49PBT 06897 68678,0.8,1.3,209.9,3,13,--.--,--.--,,--.--,--.--,--.--,0,0,--.--,--.--,0,-0.9,-0.9,-5.4,0.0,0.0,0.0,--.--,--.--,--.--,--.--,--.--,--.--,0.0,0.0,252.4,4.0,6.7,0.1,32.66,--.--,--.--,0,0,0.0,0.0,0.0,0,0,0,--.--,--.--,--.--
2024-07-16 10:02:11.475,-1.2,-2.2,252,-0.0,0.0,-0.0,0.0,0.0,0.000,0.0,-0.0,16.0,4.8,8.274,0.000,0.000,0.000,0.0,00:00:00,0.1,1.5,1,--.--,0,--.--,--.--,0,0,0003:06:40,0,1,1,25.18,-0.17,130,34,99,1,00H:00M:01S,1,-4.28,1,1,1,25.17,0.17,5,--.--,100,--.--,--:--:--,1,4.28,10:02:11,03:02:11,16/07/2024,--.--,--.--,--.--,--.--,--.--,--.--,--.--,--.--,--.--,--.--,--.--,--.--,0,--.--,--.--,--.--,--.--,--.--,--.--,--.--,--.--,--.--,--.--,--.--,--.--,--.--,--.--,--.--,--.--,0,0.000,0.000,0.000,0.000,0.000,0.000,0.000,0.000,0.400,0.400,0.400,0.400,true,true,true,true,true,true,true,false,true,true,false,false,0.03,0.01,0.13,0.00,--.--,0.00,0.32,1.59,0,0,--.--,--.--,--.--,--.--,--.--,0,0,0,0,15.9802336,108.2616682,49PBT 06897 68678,0.8,1.3,209.9,3,13,--.--,--.--,,--.--,--.--,--.--,0,0,--.--,--.--,0,-0.9,-0.8,-7.8,0.0,0.0,-0.0,--.--,--.--,--.--,--.--,--.--,--.--,0.0,0.0,252.4,4.0,6.7,0.1,32.74,--.--,--.--,0,0,0.0,0.0,0.0,0,0,0,--.--,--.--,--.--
2024-07-16 10:02:12.476,-1.2,-2.2,252,0.0,0.0,-0.0,0.0,0.0,0.000,0.0,-0.0,16.0,4.8,8.266,0.000,0.000,0.000,0.0,00:00:00,0.1,2.2,1,--.--,0,--.--,--.--,0,0,0003:06:40,0,1,1,25.18,-0.17,130,34,99,1,00H:00M:01S,1,-4.28,1,1,1,25.17,0.17,5,--.--,100,--.--,--:--:--,1,4.28,10:02:12,03:02:12,16/07/2024,--.--,--.--,--.--,--.--,--.--,--.--,--.--,--.--,--.--,--.--,--.--,--.--,0,--.--,--.--,--.--,--.--,--.--,--.--,--.--,--.--,--.--,--.--,--.--,--.--,--.--,--.--,--.--,--.--,0,0.000,0.000,0.000,0.000,0.000,0.000,0.000,0.000,0.400,0.400,0.400,0.400,true,true,true,true,true,true,true,false,true,true,false,false,0.03,0.01,0.13,0.00,--.--,0.00,0.32,1.59,0,0,--.--,--.--,--.--,--.--,--.--,0,0,0,0,15.9802337,108.2616685,49PBT 06897 68678,0.8,1.3,209.9,3,13,--.--,--.--,,--.--,--.--,--.--,0,0,--.--,--.--,0,-0.9,-0.8,-7.8,0.0,0.0,-0.0,--.--,--.--,--.--,--.--,--.--,--.--,0.0,0.0,252.4,4.0,6.7,0.1,32.74,--.--,--.--,0,0,0.0,0.0,0.0,0,0,0,--.--,--.--,--.--
2024-07-16 10:02:13.475,-1.2,-2.2,252,0.0,0.1,-0.0,0.0,0.0,0.000,0.0,-0.0,16.0,4.8,8.253,0.000,0.000,0.000,0.0,00:00:00,0.1,3.3,1,--.--,0,--.--,--.--,0,0,0003:06:40,0,1,1,25.18,-0.17,130,34,99,1,00H:00M:01S,1,-4.28,1,1,1,25.17,0.17,5,--.--,100,--.--,--:--:--,1,4.28,10:02:13,03:02:13,16/07/2024,--.--,--.--,--.--,--.--,--.--,--.--,--.--,--.--,--.--,--.--,--.--,--.--,0,--.--,--.--,--.--,--.--,--.--,--.--,--.--,--.--,--.--,--.--,--.--,--.--,--.--,--.--,--.--,--.--,0,0.000,0.000,0.000,0.000,0.000,0.000,0.000,0.000,0.400,0.400,0.400,0.400,true,true,true,true,true,true,true,false,true,true,false,false,0.03,0.01,0.13,0.00,--.--,0.00,0.32,1.59,0,0,--.--,--.--,--.--,--.--,--.--,0,0,0,0,15.9802339,108.2616688,49PBT 06897 68678,0.8,1.3,209.9,3,13,--.--,--.--,,--.--,--.--,--.--,0,0,--.--,--.--,0,-0.9,-0.8,-7.8,0.0,0.0,-0.0,--.--,--.--,--.--,--.--,--.--,--.--,0.0,0.0,252.4,4.0,6.7,0.1,32.74,--.--,--.--,0,0,0.0,0.0,0.0,0,0,0,--.--,--.--,--.--
2024-07-16 10:02:14.475,-1.2,-2.2,252,-0.0,-0.0,0.0,0.0,0.0,0.000,0.0,-0.0,15.9,4.8,8.231,0.000,0.000,0.000,0.0,00:00:00,0.1,4.1,1,--.--,0,--.--,--.--,0,0,0003:06:40,0,1,1,25.18,-0.16,2,34,99,1,00H:00M:01S,1,-4.03,1,1,1,25.17,0.17,5,--.--,100,--.--,--:--:--,1,4.28,10:02:14,03:02:14,16/07/2024,--.--,--.--,--.--,--.--,--.--,--.--,--.--,--.--,--.--,--.--,--.--,--.--,0,--.--,--.--,--.--,--.--,--.--,--.--,--.--,--.--,--.--,--.--,--.--,--.--,--.--,--.--,--.--,--.--,0,0.000,0.000,0.000,0.000,0.000,0.000,0.000,0.000,0.400,0.400,0.400,0.400,true,true,true,true,true,true,true,false,true,true,false,false,0.03,0.01,0.02,0.00,--.--,0.00,0.32,0.33,0,0,--.--,--.--,--.--,--.--,--.--,0,0,0,0,15.9802341,108.2616691,49PBT 06897 68678,0.8,1.3,209.9,3,13,--.--,--.--,,--.--,--.--,--.--,0,0,--.--,--.--,0,-0.9,-0.7,-7.7,0.0,0.0,-0.0,--.--,--.--,--.--,--.--,--.--,--.--,0.0,0.0,252.4,4.0,6.7,0.1,32.81,--.--,--.--,0,0,0.0,0.0,0.0,0,0,0,--.--,--.--,--.--
2024-07-16 10:02:15.476,-1.3,-2.2,252,-0.0,0.0,0.0,0.0,0.0,0.000,0.0,-0.0,15.9,4.8,8.216,0.000,0.000,0.000,0.0,00:00:00,0.2,4.7,1,--.--,0,--.--,--.--,0,0,0003:06:40,0,1,1,25.18,-0.16,2,34,99,1,00H:00M:01S,1,-4.03,1,1,1,25.17,0.17,5,--.--,100,--.--,--:--:--,1,4.28,10:02:15,03:02:15,16/07/2024,--.--,--.--,--.--,--.--,--.--,--.--,--.--,--.--,--.--,--.--,--.--,--.--,0,--.--,--.--,--.--,--.--,--.--,--.--,--.--,--.--,--.--,--.--,--.--,--.--,--.--,--.--,--.--,--.--,0,0.000,0.000,0.000,0.000,0.000,0.000,0.000,0.000,0.400,0.400,0.400,0.400,true,true,true,true,true,true,true,false,true,true,false,false,0.03,0.01,0.02,0.00,--.--,0.00,0.32,0.33,0,0,--.--,--.--,--.--,--.--,--.--,0,0,0,0,15.9802344,108.2616694,49PBT 06897 68678,0.8,1.3,209.9,3,13,--.--,--.--,,--.--,--.--,--.--,0,0,--.--,--.--,0,-0.9,-0.7,-7.7,0.0,0.0,-0.0,--.--,--.--,--.--,--.--,--.--,--.--,0.0,0.0,252.4,4.0,6.7,0.1,32.81,--.--,--.--,0,0,0.0,0.0,0.0,0,0,0,--.--,--.--,--.--
2024-07-16 10:02:16.476,-1.2,-2.2,252,-0.0,0.0,0.0,0.0,0.0,0.000,0.0,-0.1,15.9,4.8,8.180,0.000,0.000,0.000,0.0,00:00:00,0.2,6.2,1,--.--,0,--.--,--.--,0,0,0003:06:40,0,1,1,25.18,-0.16,2,34,99,1,00H:00M:01S,1,-4.03,1,1,1,25.17,0.17,5,--.--,100,--.--,--:--:--,1,4.28,10:02:16,03:02:16,16/07/2024,--.--,--.--,--.--,--.--,--.--,--.--,--.--,--.--,--.--,--.--,--.--,--.--,0,--.--,--.--,--.--,--.--,--.--,--.--,--.--,--.--,--.--,--.--,--.--,--.--,--.--,--.--,--.--,--.--,0,0.000,0.000,0.000,0.000,0.000,0.000,0.000,0.000,0.400,0.400,0.400,0.400,true,true,true,true,true,true,true,false,true,true,false,false,0.03,0.01,0.02,0.00,--.--,0.00,0.32,0.33,0,0,--.--,--.--,--.--,--.--,--.--,0,0,0,0,15.9802348,108.2616698,49PBT 06897 68678,0.8,1.5,209.9,3,12,--.--,--.--,,--.--,--.--,--.--,0,0,--.--,--.--,0,-0.8,-0.6,-7.7,0.0,0.0,-0.0,--.--,--.--,--.--,--.--,--.--,--.--,0.0,0.0,252.4,4.0,6.7,0.1,32.90,--.--,--.--,0,0,0.0,0.0,0.0,0,0,0,--.--,--.--,--.--
2024-07-16 10:02:17.476,-1.3,-2.2,252,0.0,-0.0,-0.0,0.0,0.0,0.000,0.0,-0.1,15.9,4.8,8.109,0.000,0.000,0.000,0.0,00:00:00,0.3,7.6,1,--.--,0,--.--,--.--,0,0,0003:06:40,0,1,1,25.18,-0.16,2,34,99,1,00H:00M:01S,1,-4.03,1,1,1,25.17,0.17,5,--.--,100,--.--,--:--:--,1,4.28,10:02:17,03:02:17,16/07/2024,--.--,--.--,--.--,--.--,--.--,--.--,--.--,--.--,--.--,--.--,--.--,--.--,0,--.--,--.--,--.--,--.--,--.--,--.--,--.--,--.--,--.--,--.--,--.--,--.--,--.--,--.--,--.--,--.--,0,0.000,0.000,0.000,0.000,0.000,0.000,0.000,0.000,0.400,0.400,0.400,0.400,true,true,true,true,true,true,true,false,true,true,false,false,0.03,0.01,0.02,0.00,--.--,0.00,0.32,0.33,0,0,--.--,--.--,--.--,--.--,--.--,0,0,0,0,15.9802351,108.2616701,49PBT 06897 68678,0.8,1.5,209.9,3,12,--.--,--.--,,--.--,--.--,--.--,0,0,--.--,--.--,0,-0.8,-0.6,-7.7,0.0,0.0,-0.0,--.--,--.--,--.--,--.--,--.--,--.--,0.0,0.0,252.4,4.0,6.8,0.1,32.90,--.--,--.--,0,0,0.0,0.0,0.0,0,0,0,--.--,--.--,--.--
2024-07-16 10:02:18.476,-1.3,-2.2,252,-0.1,0.0,-0.0,0.0,0.0,0.000,-0.0,-0.3,15.7,4.8,8.065,0.000,0.000,0.000,0.0,00:00:00,0.3,9.0,1,--.--,0,--.--,--.--,0,0,0003:06:40,0,1,1,25.18,-0.16,2,34,99,1,00H:00M:01S,1,-4.03,1,1,1,25.17,0.17,5,--.--,100,--.--,--:--:--,1,4.28,10:02:18,03:02:18,16/07/2024,--.--,--.--,--.--,--.--,--.--,--.--,--.--,--.--,--.--,--.--,--.--,--.--,0,--.--,--.--,--.--,--.--,--.--,--.--,--.--,--.--,--.--,--.--,--.--,--.--,--.--,--.--,--.--,--.--,0,0.000,0.000,0.000,0.000,0.000,0.000,0.000,0.000,0.400,0.400,0.400,0.400,true,true,true,true,true,true,true,false,true,true,false,false,0.03,0.01,0.02,0.00,--.--,0.00,0.32,0.33,0,0,--.--,--.--,--.--,--.--,--.--,0,0,0,0,15.9802352,108.2616704,49PBT 06897 68678,0.8,1.5,209.9,3,13,--.--,--.--,,--.--,--.--,--.--,0,0,--.--,--.--,0,-0.8,-0.6,-7.7,0.0,0.0,-0.0,--.--,--.--,--.--,--.--,--.--,--.--,0.0,0.0,252.4,4.0,6.8,0.1,32.90,--.--,--.--,0,0,0.0,0.0,0.0,0,0,0,--.--,--.--,--.--
2024-07-16 10:02:19.476,-1.3,-2.2,252,-0.0,0.0,-0.0,0.0,0.0,0.000,-0.0,-0.3,15.7,4.8,7.978,0.000,0.000,0.000,0.0,00:00:00,0.3,10.5,1,--.--,0,--.--,--.--,0,0,0003:06:40,0,1,1,25.18,-0.18,2,35,99,1,00H:00M:01S,1,-4.53,1,1,1,25.17,0.17,5,--.--,100,--.--,--:--:--,1,4.28,10:02:19,03:02:19,16/07/2024,--.--,--.--,--.--,--.--,--.--,--.--,--.--,--.--,--.--,--.--,--.--,--.--,0,--.--,--.--,--.--,--.--,--.--,--.--,--.--,--.--,--.--,--.--,--.--,--.--,--.--,--.--,--.--,--.--,0,0.000,0.000,0.000,0.000,0.000,0.000,0.000,0.000,0.400,0.400,0.400,0.400,true,true,true,true,true,true,true,false,true,true,false,false,0.03,0.02,0.03,0.00,--.--,0.00,0.31,0.32,0,0,--.--,--.--,--.--,--.--,--.--,0,0,0,0,15.9802354,108.2616707,49PBT 06897 68678,0.8,1.3,209.9,3,13,--.--,--.--,,--.--,--.--,--.--,0,0,--.--,--.--,0,-0.8,-0.6,-7.5,0.0,0.0,0.0,--.--,--.--,--.--,--.--,--.--,--.--,0.0,0.0,252.4,4.0,6.8,0.1,32.98,--.--,--.--,0,0,0.0,0.0,0.0,0,0,0,--.--,--.--,--.--
2024-07-16 10:02:20.476,-1.3,-2.2,252,0.0,0.0,-0.0,0.0,0.0,0.000,-0.0,-0.3,15.7,4.8,7.945,0.000,0.000,0.000,0.0,00:00:00,0.4,10.4,1,--.--,0,--.--,--.--,0,0,0003:06:40,0,1,1,25.18,-0.18,2,35,99,1,00H:00M:01S,1,-4.53,1,1,1,25.17,0.17,5,--.--,100,--.--,--:--:--,1,4.28,10:02:20,03:02:20,16/07/2024,--.--,--.--,--.--,--.--,--.--,--.--,--.--,--.--,--.--,--.--,--.--,--.--,0,--.--,--.--,--.--,--.--,--.--,--.--,--.--,--.--,--.--,--.--,--.--,--.--,--.--,--.--,--.--,--.--,0,0.000,0.000,0.000,0.000,0.000,0.000,0.000,0.000,0.400,0.400,0.400,0.400,true,true,true,true,true,true,true,false,true,true,false,false,0.03,0.02,0.03,0.00,--.--,0.00,0.31,0.32,0,0,--.--,--.--,--.--,--.--,--.--,0,0,0,0,15.9802355,108.2616710,49PBT 06897 68678,0.8,1.3,209.9,3,13,--.--,--.--,,--.--,--.--,--.--,0,0,--.--,--.--,0,-0.8,-0.6,-7.5,0.0,0.0,0.0,--.--,--.--,--.--,--.--,--.--,--.--,0.0,0.0,252.4,4.1,6.8,0.1,32.98,--.--,--.--,0,0,0.0,0.0,0.0,0,0,0,--.--,--.--,--.--
2024-07-16 10:02:21.475,-1.3,-2.2,252,-0.0,-0.0,0.0,0.0,0.0,0.000,-0.0,-0.4,15.6,4.8,7.876,0.000,0.000,0.000,0.0,00:00:00,0.4,12.7,1,--.--,0,--.--,--.--,0,0,0003:06:40,0,1,1,25.18,-0.18,2,35,99,1,00H:00M:01S,1,-4.53,1,1,1,25.17,0.17,5,--.--,100,--.--,--:--:--,1,4.28,10:02:21,03:02:21,16/07/2024,--.--,--.--,--.--,--.--,--.--,--.--,--.--,--.--,--.--,--.--,--.--,--.--,0,--.--,--.--,--.--,--.--,--.--,--.--,--.--,--.--,--.--,--.--,--.--,--.--,--.--,--.--,--.--,--.--,0,0.000,0.000,0.000,0.000,0.000,0.000,0.000,0.000,0.400,0.400,0.400,0.400,true,true,true,true,true,true,true,false,true,true,false,false,0.03,0.02,0.03,0.00,--.--,0.00,0.31,0.32,0,0,--.--,--.--,--.--,--.--,--.--,0,0,0,0,15.9802359,108.2616714,49PBT 06897 68678,0.8,1.5,209.9,3,12,--.--,--.--,,--.--,--.--,--.--,0,0,--.--,--.--,0,-0.7,-0.5,-7.4,0.0,0.0,0.0,--.--,--.--,--.--,--.--,--.--,--.--,0.0,0.0,252.4,4.1,6.8,0.1,33.07,--.--,--.--,0,0,0.0,0.0,0.0,0,0,0,--.--,--.--,--.--
2024-07-16 10:02:22.475,-1.3,-2.2,252,-0.0,0.1,-0.0,0.0,0.0,0.000,-0.0,-0.4,15.6,12.6,7.835,0.000,0.000,0.000,0.0,00:00:00,0.5,13.1,1,--.--,0,--.--,--.--,0,0,0003:06:40,0,1,1,25.18,-0.18,2,35,99,1,00H:00M:01S,1,-4.53,1,1,1,25.17,0.17,5,--.--,100,--.--,--:--:--,1,4.28,10:02:22,03:02:22,16/07/2024,--.--,--.--,--.--,--.--,--.--,--.--,--.--,--.--,--.--,--.--,--.--,--.--,0,--.--,--.--,--.--,--.--,--.--,--.--,--.--,--.--,--.--,--.--,--.--,--.--,--.--,--.--,--.--,--.--,0,0.000,0.000,0.000,0.000,0.000,0.000,0.000,0.000,0.400,0.400,0.400,0.400,true,true,true,true,true,true,true,false,true,true,false,false,0.03,0.02,0.03,0.00,--.--,0.00,0.31,0.32,0,0,--.--,--.--,--.--,--.--,--.--,0,0,0,0,15.9802360,108.2616717,49PBT 06897 68678,0.8,1.5,209.9,3,12,--.--,--.--,,--.--,--.--,--.--,0,0,--.--,--.--,0,-0.7,-0.5,-7.4,0.0,0.0,0.0,--.--,--.--,--.--,--.--,--.--,--.--,0.0,0.0,252.5,4.1,6.8,0.1,33.07,--.--,--.--,0,0,0.0,0.0,0.0,0,0,0,--.--,--.--,--.--
2024-07-16 10:02:23.476,-1.3,-2.2,252,-0.0,0.0,-0.0,0.0,0.0,0.000,-0.0,-0.4,15.6,12.6,7.787,0.000,0.000,0.000,0.0,00:00:00,0.5,15.7,1,--.--,0,--.--,--.--,0,0,0003:06:40,0,1,1,25.18,-0.18,2,35,99,1,00H:00M:01S,1,-4.53,1,1,1,25.17,0.17,5,--.--,100,--.--,--:--:--,1,4.28,10:02:23,03:02:23,16/07/2024,--.--,--.--,--.--,--.--,--.--,--.--,--.--,--.--,--.--,--.--,--.--,--.--,0,--.--,--.--,--.--,--.--,--.--,--.--,--.--,--.--,--.--,--.--,--.--,--.--,--.--,--.--,--.--,--.--,0,0.000,0.000,0.000,0.000,0.000,0.000,0.000,0.000,0.400,0.400,0.400,0.400,true,true,true,true,true,true,true,false,true,true,false,false,0.03,0.02,0.03,0.00,--.--,0.00,0.31,0.32,0,0,--.--,--.--,--.--,--.--,--.--,0,0,0,0,15.9802360,108.2616719,49PBT 06897 68678,0.8,1.5,209.9,3,12,--.--,--.--,,--.--,--.--,--.--,0,0,--.--,--.--,0,-0.7,-0.5,-7.4,0.0,0.0,0.0,--.--,--.--,--.--,--.--,--.--,--.--,0.0,0.0,252.5,4.1,6.8,0.1,33.07,--.--,--.--,0,0,0.0,0.0,0.0,0,0,0,--.--,--.--,--.--
2024-07-16 10:02:24.476,-1.3,-2.2,252,-0.0,0.0,0.0,0.0,0.0,0.000,-0.0,-0.5,15.5,12.6,7.762,0.000,0.000,0.000,0.0,00:00:00,0.5,16.9,1,--.--,0,--.--,--.--,0,0,0003:06:40,0,1,1,25.18,-0.18,2,35,99,1,00H:00M:01S,1,-4.53,1,1,1,25.17,0.17,5,--.--,100,--.--,--:--:--,1,4.28,10:02:24,03:02:24,16/07/2024,--.--,--.--,--.--,--.--,--.--,--.--,--.--,--.--,--.--,--.--,--.--,--.--,0,--.--,--.--,--.--,--.--,--.--,--.--,--.--,--.--,--.--,--.--,--.--,--.--,--.--,--.--,--.--,--.--,0,0.000,0.000,0.000,0.000,0.000,0.000,0.000,0.000,0.400,0.400,0.400,0.400,true,true,true,true,true,true,true,false,true,true,false,false,0.03,0.02,0.03,0.00,--.--,0.00,0.31,0.32,0,0,--.--,--.--,--.--,--.--,--.--,0,0,0,0,15.9802360,108.2616720,49PBT 06897 68678,0.8,1.5,209.9,3,12,--.--,--.--,,--.--,--.--,--.--,0,0,--.--,--.--,0,-0.6,-0.4,-7.3,-0.0,0.0,0.0,--.--,--.--,--.--,--.--,--.--,--.--,0.0,0.0,252.5,4.1,6.8,0.1,33.15,--.--,--.--,0,0,0.0,0.0,0.0,0,0,0,--.--,--.--,--.--
2024-07-16 10:02:25.475,-1.3,-2.3,252,-0.0,0.1,0.0,0.0,0.0,0.000,-0.0,-0.5,15.5,12.6,7.730,0.000,0.000,0.000,0.0,00:00:00,0.6,18.0,1,--.--,0,--.--,--.--,0,0,0003:06:40,0,1,1,25.18,-0.17,2,35,99,1,00H:00M:01S,1,-4.28,1,1,1,25.17,0.17,6,--.--,100,--.--,--:--:--,1,4.28,10:02:25,03:02:25,16/07/2024,--.--,--.--,--.--,--.--,--.--,--.--,--.--,--.--,--.--,--.--,--.--,--.--,0,--.--,--.--,--.--,--.--,--.--,--.--,--.--,--.--,--.--,--.--,--.--,--.--,--.--,--.--,--.--,--.--,0,0.000,0.000,0.000,0.000,0.000,0.000,0.000,0.000,0.400,0.400,0.400,0.400,true,true,true,true,true,true,true,false,true,true,false,false,0.02,0.01,0.04,0.00,--.--,0.00,0.33,0.33,0,0,--.--,--.--,--.--,--.--,--.--,0,0,0,0,15.9802360,108.2616722,49PBT 06897 68678,0.8,1.5,209.9,3,12,--.--,--.--,,--.--,--.--,--.--,0,0,--.--,--.--,0,-0.6,-0.4,-7.3,-0.0,0.0,0.0,--.--,--.--,--.--,--.--,--.--,--.--,0.0,0.0,252.5,4.0,6.8,0.1,33.15,--.--,--.--,0,0,0.0,0.0,0.0,0,0,0,--.--,--.--,--.--
2024-07-16 10:02:26.476,-1.3,-2.3,252,-0.0,-0.0,-0.0,0.0,0.0,0.000,-0.0,-0.5,15.5,12.6,7.668,0.000,0.000,0.000,0.0,00:00:00,0.6,19.8,1,--.--,0,--.--,--.--,0,0,0003:06:40,0,1,1,25.18,-0.17,2,35,99,1,00H:00M:01S,1,-4.28,1,1,1,25.17,0.17,6,--.--,100,--.--,--:--:--,1,4.28,10:02:26,03:02:26,16/07/2024,--.--,--.--,--.--,--.--,--.--,--.--,--.--,--.--,--.--,--.--,--.--,--.--,0,--.--,--.--,--.--,--.--,--.--,--.--,--.--,--.--,--.--,--.--,--.--,--.--,--.--,--.--,--.--,--.--,0,0.000,0.000,0.000,0.000,0.000,0.000,0.000,0.000,0.400,0.400,0.400,0.400,true,true,true,true,true,true,true,false,true,true,false,false,0.02,0.01,0.04,0.00,--.--,0.00,0.33,0.33,0,0,--.--,--.--,--.--,--.--,--.--,0,0,0,0,15.9802359,108.2616725,49PBT 06897 68678,0.8,1.5,209.9,3,12,--.--,--.--,,--.--,--.--,--.--,0,0,--.--,--.--,0,-0.6,-0.4,-7.3,-0.0,0.0,0.0,--.--,--.--,--.--,--.--,--.--,--.--,0.0,0.0,252.5,4.1,6.9,0.1,33.15,--.--,--.--,0,0,0.0,0.0,0.0,0,0,0,--.--,--.--,--.--
2024-07-16 10:02:27.475,-1.3,-2.3,252,-0.0,0.0,0.0,0.0,0.0,0.000,0.0,-0.0,15.3,12.6,7.640,0.000,0.000,0.000,0.0,00:00:00,0.6,20.9,1,--.--,0,--.--,--.--,0,0,0003:06:40,0,1,1,25.18,-0.17,2,35,99,1,00H:00M:01S,1,-4.28,1,1,1,25.17,0.17,6,--.--,100,--.--,--:--:--,1,4.28,10:02:27,03:02:27,16/07/2024,--.--,--.--,--.--,--.--,--.--,--.--,--.--,--.--,--.--,--.--,--.--,--.--,0,--.--,--.--,--.--,--.--,--.--,--.--,--.--,--.--,--.--,--.--,--.--,--.--,--.--,--.--,--.--,--.--,0,0.000,0.000,0.000,0.000,0.000,0.000,0.000,0.000,0.600,0.600,0.600,0.600,true,true,true,true,true,true,true,false,true,true,false,false,0.02,0.01,0.04,0.00,--.--,0.00,0.33,0.33,0,0,--.--,--.--,--.--,--.--,--.--,0,0,0,0,15.9802358,108.2616726,49PBT 06897 68678,0.8,1.5,209.9,3,12,--.--,--.--,,--.--,--.--,--.--,0,0,--.--,--.--,0,-0.6,-0.3,-7.1,-0.0,0.0,-0.0,--.--,--.--,--.--,--.--,--.--,--.--,0.0,0.0,252.5,4.1,6.9,0.1,33.26,--.--,--.--,0,0,0.0,0.0,0.0,0,0,0,--.--,--.--,--.--
2024-07-16 10:02:28.476,-1.3,-2.3,252,-0.0,-0.0,0.0,0.0,0.0,0.000,0.0,-0.0,15.3,12.6,7.637,0.000,0.000,0.000,0.0,00:00:01,0.6,23.0,1,--.--,0,--.--,--.--,0,0,0003:06:40,0,1,1,25.18,-0.17,2,35,99,1,00H:00M:01S,1,-4.28,1,1,1,25.17,0.17,6,--.--,100,--.--,--:--:--,1,4.28,10:02:28,03:02:28,16/07/2024,--.--,--.--,--.--,--.--,--.--,--.--,--.--,--.--,--.--,--.--,--.--,--.--,0,--.--,--.--,--.--,--.--,--.--,--.--,--.--,--.--,--.--,--.--,--.--,--.--,--.--,--.--,--.--,--.--,0,0.000,0.000,0.000,0.000,0.000,0.000,0.000,0.000,0.600,0.600,0.600,0.600,true,true,true,true,true,true,true,false,true,true,false,false,0.02,0.01,0.04,0.00,--.--,0.00,0.33,0.33,0,0,--.--,--.--,--.--,--.--,--.--,0,0,0,0,15.9802357,108.2616728,49PBT 06897 68678,0.8,1.5,209.9,3,12,--.--,--.--,,--.--,--.--,--.--,0,0,--.--,--.--,0,-0.6,-0.3,-7.1,-0.0,0.0,-0.0,--.--,--.--,--.--,--.--,--.--,--.--,0.0,0.0,252.5,4.0,6.8,0.1,33.26,--.--,--.--,0,0,0.0,0.0,0.0,0,0,0,--.--,--.--,--.--
2024-07-16 10:02:29.476,-1.3,-2.3,252,0.5,-0.4,-7.1,0.0,0.0,0.000,0.0,-0.0,15.3,12.6,7.622,0.000,0.000,0.000,0.0,00:00:02,0.6,23.7,1,--.--,0,--.--,--.--,0,0,0003:06:40,0,1,1,25.18,-0.17,2,35,99,1,00H:00M:01S,1,-4.28,1,1,1,25.17,0.17,6,--.--,100,--.--,--:--:--,1,4.28,10:02:29,03:02:29,16/07/2024,--.--,--.--,--.--,--.--,--.--,--.--,--.--,--.--,--.--,--.--,--.--,--.--,0,--.--,--.--,--.--,--.--,--.--,--.--,--.--,--.--,--.--,--.--,--.--,--.--,--.--,--.--,--.--,--.--,0,0.000,0.000,0.000,0.000,0.000,0.000,0.000,0.000,0.600,0.600,0.600,0.600,true,true,true,true,true,true,true,false,true,true,false,false,0.02,0.01,0.04,0.00,--.--,0.00,0.33,0.33,0,0,--.--,--.--,--.--,--.--,--.--,0,0,0,0,15.9802357,108.2616728,49PBT 06897 68678,0.8,1.5,209.9,3,12,--.--,--.--,,--.--,--.--,--.--,0,0,--.--,--.--,0,-0.6,-0.3,-7.1,-0.0,0.0,-0.0,--.--,--.--,--.--,--.--,--.--,--.--,0.0,0.0,252.5,4.0,6.9,0.4,33.26,--.--,--.--,0,0,0.0,0.0,0.0,0,0,0,--.--,--.--,--.--
2024-07-16 10:02:30.476,-1.2,-2.2,252,-0.5,-0.4,-1.6,0.0,0.0,0.000,0.0,-0.0,15.3,12.6,7.627,0.000,0.000,0.000,0.0,00:00:03,0.1,24.8,1,--.--,0,--.--,--.--,0,0,0003:06:40,0,1,1,25.16,-0.59,3,35,99,1,00H:00M:01S,1,-14.85,1,1,1,25.14,0.52,6,--.--,99,--.--,--:--:--,1,13.07,10:02:30,03:02:30,16/07/2024,--.--,--.--,--.--,--.--,--.--,--.--,--.--,--.--,--.--,--.--,--.--,--.--,0,--.--,--.--,--.--,--.--,--.--,--.--,--.--,--.--,--.--,--.--,--.--,--.--,--.--,--.--,--.--,--.--,0,0.000,0.000,0.000,0.000,179.200,179.200,179.200,179.200,51.800,51.800,51.800,51.800,true,true,true,true,true,true,true,false,true,true,false,false,0.02,0.01,0.03,0.00,--.--,0.00,0.32,0.33,0,0,--.--,--.--,--.--,--.--,--.--,0,0,0,0,15.9802356,108.2616729,49PBT 06897 68678,0.8,1.5,209.9,3,12,--.--,--.--,,--.--,--.--,--.--,0,0,--.--,--.--,0,-0.6,-0.3,-7.1,-0.0,0.0,-0.0,--.--,--.--,--.--,--.--,--.--,--.--,0.0,0.0,252.5,4.0,6.9,0.4,33.34,--.--,--.--,0,0,0.0,0.0,0.0,0,0,0,--.--,--.--,--.--
2024-07-16 10:02:31.476,-1.2,-1.8,252,-2.2,-2.6,0.3,0.0,0.0,0.000,0.0,-0.0,15.3,12.6,7.661,0.000,0.000,0.000,0.0,00:00:04,0.1,1.7,1,--.--,0,--.--,--.--,0,0,0003:06:40,0,1,1,25.16,-0.59,3,35,99,1,00H:00M:01S,1,-14.85,1,1,1,25.14,0.52,6,--.--,99,--.--,--:--:--,1,13.07,10:02:31,03:02:31,16/07/2024,--.--,--.--,--.--,--.--,--.--,--.--,--.--,--.--,--.--,--.--,--.--,--.--,0,--.--,--.--,--.--,--.--,--.--,--.--,--.--,--.--,--.--,--.--,--.--,--.--,--.--,--.--,--.--,--.--,0,0.000,0.000,0.000,0.000,179.200,179.200,179.200,179.200,51.800,51.800,51.800,51.800,true,true,true,true,true,true,true,false,true,true,false,false,0.02,0.01,0.03,0.00,--.--,0.00,0.32,0.33,0,0,--.--,--.--,--.--,--.--,--.--,0,0,0,0,15.9802355,108.2616731,49PBT 06898 68678,0.8,1.5,209.9,3,12,--.--,--.--,,--.--,--.--,--.--,0,0,--.--,--.--,0,-0.6,-0.3,-7.1,-0.0,0.0,-0.0,--.--,--.--,--.--,--.--,--.--,--.--,0.0,0.0,252.5,4.0,6.2,0.0,33.34,--.--,--.--,0,0,0.0,0.0,0.0,0,0,0,--.--,--.--,--.--
2024-07-16 10:02:32.475,-1.1,-1.9,252,1.3,-2.5,-0.2,0.0,0.0,0.000,0.0,0.0,15.4,12.6,7.683,0.000,0.000,0.000,0.0,00:00:05,0.1,4.7,1,--.--,0,--.--,--.--,0,0,0003:06:40,0,1,1,25.16,-0.59,3,35,99,1,00H:00M:01S,1,-14.85,1,1,1,25.14,0.52,6,--.--,99,--.--,--:--:--,1,13.07,10:02:32,03:02:32,16/07/2024,--.--,--.--,--.--,--.--,--.--,--.--,--.--,--.--,--.--,--.--,--.--,--.--,0,--.--,--.--,--.--,--.--,--.--,--.--,--.--,--.--,--.--,--.--,--.--,--.--,--.--,--.--,--.--,--.--,0,0.000,0.000,0.000,0.000,179.200,179.200,179.200,179.200,51.800,51.800,51.800,51.800,true,true,true,true,true,true,true,false,true,true,false,false,0.02,0.01,0.03,0.00,--.--,0.00,0.32,0.33,0,0,--.--,--.--,--.--,--.--,--.--,0,0,0,0,15.9802354,108.2616732,49PBT 06898 68678,0.8,1.5,209.9,3,12,--.--,--.--,,--.--,--.--,--.--,0,0,--.--,--.--,0,-0.6,-0.2,-7.2,0.0,0.0,-0.0,--.--,--.--,--.--,--.--,--.--,--.--,0.0,0.0,252.5,3.6,5.7,0.1,33.43,--.--,--.--,0,0,0.0,0.0,0.0,0,0,0,--.--,--.--,--.--
2024-07-16 10:02:33.476,-1.1,-1.9,252,0.2,2.2,0.9,0.1,0.0,0.000,0.0,0.0,15.4,12.6,7.697,0.000,0.000,0.000,0.0,00:00:06,0.1,1.9,1,--.--,0,--.--,--.--,2,0,0003:06:40,0,1,1,25.16,-0.59,3,35,99,1,00H:00M:01S,1,-14.85,1,1,1,25.14,0.52,6,--.--,99,--.--,--:--:--,1,13.07,10:02:33,03:02:33,16/07/2024,--.--,--.--,--.--,--.--,--.--,--.--,--.--,--.--,--.--,--.--,--.--,--.--,0,--.--,--.--,--.--,--.--,--.--,--.--,--.--,--.--,--.--,--.--,--.--,--.--,--.--,--.--,--.--,--.--,0,0.000,0.000,0.000,0.000,102.400,179.200,211.200,147.200,0.600,0.600,0.600,0.600,true,true,true,true,true,true,true,false,true,true,false,false,0.02,0.01,0.03,0.00,--.--,0.00,0.32,0.33,0,0,--.--,--.--,--.--,--.--,--.--,0,0,0,0,15.9802354,108.2616734,49PBT 06898 68678,0.8,1.5,209.9,3,12,--.--,--.--,,--.--,--.--,--.--,0,0,--.--,--.--,0,-0.6,-0.2,-7.2,0.0,0.0,-0.0,-0.6,-0.2,--.--,-0.0,-0.0,2.0,0.0,0.0,252.5,3.6,5.7,0.1,33.43,--.--,--.--,0,0,0.0,0.0,0.0,0,0,0,--.--,--.--,--.--
2024-07-16 10:02:34.476,-1.9,-1.2,253,-20.9,-2.8,1.5,0.1,0.0,0.000,0.2,0.0,15.4,12.6,7.720,0.000,0.000,0.000,0.0,00:00:07,0.1,1.2,1,--.--,0,--.--,--.--,40,0,0003:06:40,0,1,1,25.16,-0.59,3,35,99,1,00H:00M:01S,1,-14.85,1,1,1,25.14,0.52,6,--.--,99,--.--,--:--:--,1,13.07,10:02:34,03:02:34,16/07/2024,--.--,--.--,--.--,--.--,--.--,--.--,--.--,--.--,--.--,--.--,--.--,--.--,0,--.--,--.--,--.--,--.--,--.--,--.--,--.--,--.--,--.--,--.--,--.--,--.--,--.--,--.--,--.--,--.--,0,0.000,0.000,0.000,0.000,102.400,179.200,211.200,147.200,0.600,0.600,0.600,0.600,true,true,true,true,true,true,true,false,true,true,false,false,0.02,0.01,0.03,0.00,--.--,0.00,0.32,0.33,0,0,--.--,--.--,--.--,--.--,--.--,0,0,0,0,15.9802355,108.2616735,49PBT 06898 68678,0.8,1.5,209.9,3,12,--.--,--.--,,--.--,--.--,--.--,0,0,--.--,--.--,0,-0.6,-0.2,-7.2,0.0,0.0,-0.0,-0.6,-0.2,--.--,-0.0,-0.0,2.0,1.0,-0.7,252.5,6.9,3.9,-0.2,33.43,--.--,--.--,0,0,0.0,0.0,0.0,0,0,0,--.--,--.--,--.--
2024-07-16 10:02:35.476,-3.3,-1.9,249,-7.3,-2.5,2.7,0.1,0.0,0.000,1.1,0.7,16.1,12.6,8.094,0.000,0.000,0.000,0.0,00:00:08,0.2,0.7,1,--.--,0,--.--,--.--,32,0,0003:06:40,0,1,1,25.16,-0.59,3,35,99,1,00H:00M:01S,1,-14.85,1,1,1,25.14,0.52,6,--.--,99,--.--,--:--:--,1,13.07,10:02:35,03:02:35,16/07/2024,--.--,--.--,--.--,--.--,--.--,--.--,--.--,--.--,--.--,--.--,--.--,--.--,0,--.--,--.--,--.--,--.--,--.--,--.--,--.--,--.--,--.--,--.--,--.--,--.--,--.--,--.--,--.--,--.--,0,0.000,0.000,0.000,0.000,345.600,403.200,294.400,320.000,0.600,0.600,0.600,0.600,true,true,true,true,true,true,true,false,true,true,false,false,0.02,0.01,0.03,0.00,--.--,0.00,0.32,0.33,0,0,--.--,--.--,--.--,--.--,--.--,0,0,0,0,15.9802368,108.2616733,49PBT 06898 68678,0.8,1.5,233.4,3,12,--.--,--.--,,--.--,--.--,--.--,0,0,--.--,--.--,0,-0.5,-0.2,-7.9,0.1,0.0,-1.2,-0.6,-0.2,--.--,-0.1,0.0,-0.9,-2.3,0.7,252.5,-5.1,4.9,-4.0,33.51,--.--,--.--,0,0,0.0,0.0,0.0,0,0,0,--.--,--.--,--.--
2024-07-16 10:02:36.476,-2.9,-0.6,264,-6.7,5.5,0.4,0.1,0.0,0.000,1.0,0.7,16.1,13.1,9.514,0.000,0.000,0.000,0.0,00:00:09,0.3,4.5,1,--.--,0,--.--,--.--,31,0,0003:06:40,0,1,1,25.16,-0.59,3,35,99,1,00H:00M:01S,1,-14.85,1,1,1,24.26,11.53,15,--.--,89,--.--,--:--:--,1,279.75,10:02:36,03:02:36,16/07/2024,--.--,--.--,--.--,--.--,--.--,--.--,--.--,--.--,--.--,--.--,--.--,--.--,0,--.--,--.--,--.--,--.--,--.--,--.--,--.--,--.--,--.--,--.--,--.--,--.--,--.--,--.--,--.--,--.--,0,0.000,0.000,0.000,0.000,345.600,403.200,294.400,320.000,0.600,0.600,0.600,0.600,true,true,true,true,true,true,false,false,true,true,false,false,0.03,0.01,0.02,0.00,--.--,0.00,0.32,0.33,0,0,--.--,--.--,--.--,--.--,--.--,0,0,0,0,15.9802380,108.2616732,49PBT 06898 68678,0.8,1.3,233.4,3,13,--.--,--.--,,--.--,--.--,--.--,0,0,--.--,--.--,0,-0.5,-0.2,-7.9,0.1,0.0,-1.2,-0.6,-0.2,--.--,-0.1,0.0,-0.9,-4.1,-0.2,263.5,-5.4,3.0,-3.1,33.51,--.--,--.--,0,0,0.0,0.0,0.0,0,0,0,--.--,--.--,--.--
2024-07-16 10:02:37.477,-3.8,-1.7,263,-6.4,0.8,0.7,0.1,0.0,0.000,1.1,0.7,16.1,13.1,10.219,0.000,0.000,0.000,0.0,00:00:10,0.2,3.0,1,--.--,0,--.--,--.--,28,0,0003:06:40,0,1,1,25.16,-0.59,3,35,99,1,00H:00M:01S,1,-14.85,1,1,1,24.26,11.53,15,--.--,89,--.--,--:--:--,1,279.75,10:02:37,03:02:37,16/07/2024,--.--,--.--,--.--,--.--,--.--,--.--,--.--,--.--,--.--,--.--,--.--,--.--,0,--.--,--.--,--.--,--.--,--.--,--.--,--.--,--.--,--.--,--.--,--.--,--.--,--.--,--.--,--.--,--.--,0,0.000,0.000,0.000,0.000,345.600,403.200,294.400,320.000,0.600,0.600,0.600,0.600,true,true,true,true,true,true,false,false,true,true,false,false,0.03,0.01,0.02,0.00,--.--,0.00,0.32,0.33,0,0,--.--,--.--,--.--,--.--,--.--,0,0,0,0,15.9802380,108.2616731,49PBT 06898 68678,0.8,1.5,233.4,3,12,--.--,--.--,,--.--,--.--,--.--,0,0,--.--,--.--,0,-0.5,-0.2,-7.9,0.1,0.0,-1.2,-0.6,-0.2,--.--,-0.2,0.0,-0.9,-4.1,-0.2,263.5,-5.4,3.0,-3.1,33.51,--.--,--.--,0,0,0.0,0.0,0.0,0,0,0,--.--,--.--,--.--
2024-07-16 10:02:38.476,-3.4,-0.9,263,2.3,-4.0,-0.9,0.1,0.0,0.000,1.2,3.6,19.0,13.1,11.662,0.000,0.000,0.000,0.0,00:00:11,0.2,3.3,1,--.--,0,--.--,--.--,30,0,0003:06:40,0,1,1,25.16,-0.59,3,35,99,1,00H:00M:01S,1,-14.85,1,1,1,24.26,11.53,15,--.--,89,--.--,--:--:--,1,279.75,10:02:38,03:02:38,16/07/2024,--.--,--.--,--.--,--.--,--.--,--.--,--.--,--.--,--.--,--.--,--.--,--.--,0,--.--,--.--,--.--,--.--,--.--,--.--,--.--,--.--,--.--,--.--,--.--,--.--,--.--,--.--,--.--,--.--,0,0.000,0.000,0.000,0.000,307.200,364.800,371.200,358.400,0.600,0.600,0.600,0.600,true,true,true,true,true,true,false,false,true,true,false,false,0.03,0.01,0.02,0.00,--.--,0.00,0.32,0.33,0,0,--.--,--.--,--.--,--.--,--.--,0,0,0,0,15.9802374,108.2616736,49PBT 06898 68678,0.7,1.3,233.4,3,13,--.--,--.--,,--.--,--.--,--.--,0,0,--.--,--.--,0,-0.4,-0.2,-10.8,-0.0,0.0,-1.1,-0.6,-0.2,--.--,-0.2,-0.0,-1.0,-2.2,-0.1,263.5,3.5,2.9,2.0,33.62,--.--,--.--,0,0,0.0,0.0,0.0,0,0,0,--.--,--.--,--.--
2024-07-16 10:02:39.476,-0.6,-0.8,264,-7.5,-1.6,1.5,0.1,0.0,0.000,1.2,3.6,19.0,16.0,12.440,0.000,0.000,0.000,0.0,00:00:12,0.1,2.9,1,--.--,0,--.--,--.--,29,0,0003:06:40,0,1,1,25.16,-0.59,3,35,99,1,00H:00M:01S,1,-14.85,1,1,1,24.26,11.53,15,--.--,89,--.--,--:--:--,1,279.75,10:02:39,03:02:39,16/07/2024,--.--,--.--,--.--,--.--,--.--,--.--,--.--,--.--,--.--,--.--,--.--,--.--,0,--.--,--.--,--.--,--.--,--.--,--.--,--.--,--.--,--.--,--.--,--.--,--.--,--.--,--.--,--.--,--.--,0,0.000,0.000,0.000,0.000,307.200,364.800,371.200,358.400,0.600,0.600,0.600,0.600,true,true,true,true,true,true,false,false,true,true,false,false,0.03,0.01,0.02,0.00,--.--,0.00,0.32,0.33,0,0,--.--,--.--,--.--,--.--,--.--,0,0,0,0,15.9802374,108.2616740,49PBT 06898 68678,0.7,1.3,233.4,3,13,--.--,--.--,,--.--,--.--,--.--,0,0,--.--,--.--,0,-0.4,-0.2,-10.8,-0.0,0.0,-1.1,-0.6,-0.2,--.--,-0.2,-0.0,-1.0,-1.3,-1.1,263.5,4.6,-1.2,1.1,33.62,--.--,--.--,0,0,0.0,0.0,0.0,0,0,0,--.--,--.--,--.--
2024-07-16 10:02:40.475,-2.1,-1.4,263,-9.9,0.0,2.6,0.0,0.0,0.000,0.9,3.6,19.0,16.0,13.867,0.000,0.000,0.000,0.0,00:00:13,0.2,4.0,1,--.--,0,--.--,--.--,24,0,0003:06:40,0,1,1,25.16,-0.59,3,35,99,1,00H:00M:01S,1,-14.85,1,1,1,24.26,11.53,15,--.--,89,--.--,--:--:--,1,279.75,10:02:40,03:02:40,16/07/2024,--.--,--.--,--.--,--.--,--.--,--.--,--.--,--.--,--.--,--.--,--.--,--.--,0,--.--,--.--,--.--,--.--,--.--,--.--,--.--,--.--,--.--,--.--,--.--,--.--,--.--,--.--,--.--,--.--,0,0.000,0.000,0.000,0.000,307.200,364.800,371.200,358.400,0.600,0.600,0.600,0.600,true,true,true,true,true,true,false,false,true,true,false,false,0.03,0.01,0.02,0.00,--.--,0.00,0.32,0.33,0,0,--.--,--.--,--.--,--.--,--.--,0,0,0,0,15.9802376,108.2616749,49PBT 06898 68678,0.7,1.1,233.4,3,14,--.--,--.--,,--.--,--.--,--.--,0,0,--.--,--.--,0,-0.4,-0.2,-10.8,-0.0,0.0,-1.1,-0.6,-0.2,--.--,-0.1,-0.1,-0.6,-3.3,-2.8,263.5,-4.8,-4.1,3.3,33.62,--.--,--.--,0,0,0.0,0.0,0.0,0,0,0,--.--,--.--,--.--
2024-07-16 10:02:41.476,-1.5,-9.8,264,-8.8,-37.2,-2.6,0.1,0.0,0.000,0.6,6.4,21.8,16.0,14.282,0.000,0.000,0.000,0.0,00:00:14,0.2,3.5,1,--.--,0,--.--,--.--,31,0,0003:06:40,0,1,1,24.74,-8.99,25,36,99,1,00H:00M:01S,1,-222.39,1,1,1,24.09,10.90,33,--.--,85,--.--,--:--:--,1,262.54,10:02:41,03:02:41,16/07/2024,--.--,--.--,--.--,--.--,--.--,--.--,--.--,--.--,--.--,--.--,--.--,--.--,0,--.--,--.--,--.--,--.--,--.--,--.--,--.--,--.--,--.--,--.--,--.--,--.--,--.--,--.--,--.--,--.--,0,0.000,0.000,0.000,0.000,313.600,377.600,358.400,300.800,0.600,0.600,0.600,0.600,true,true,true,true,true,true,false,false,true,true,false,false,0.08,0.02,0.09,0.00,--.--,0.00,0.33,0.34,0,0,--.--,--.--,--.--,--.--,--.--,0,0,0,0,15.9802375,108.2616753,49PBT 06898 68678,0.7,1.1,233.4,3,14,--.--,--.--,,--.--,--.--,--.--,0,0,--.--,--.--,0,-0.5,-0.1,-13.6,0.0,0.0,-0.7,-0.6,-0.2,--.--,-0.1,-0.1,-0.6,-3.3,-2.8,263.5,-4.8,-4.1,3.3,33.71,--.--,--.--,0,0,0.0,0.0,0.0,0,0,0,--.--,--.--,--.--
2024-07-16 10:02:42.476,-3.3,-18.3,266,5.3,22.2,3.3,2.6,0.0,0.000,0.6,6.4,21.8,18.8,15.020,0.000,0.000,0.000,0.0,00:00:15,0.8,0.3,1,--.--,0,--.--,--.--,30,0,0003:06:40,0,1,1,24.74,-8.99,25,36,99,1,00H:00M:01S,1,-222.39,1,1,1,24.09,10.90,33,--.--,85,--.--,--:--:--,1,262.54,10:02:42,03:02:42,16/07/2024,--.--,--.--,--.--,--.--,--.--,--.--,--.--,--.--,--.--,--.--,--.--,--.--,0,--.--,--.--,--.--,--.--,--.--,--.--,--.--,--.--,--.--,--.--,--.--,--.--,--.--,--.--,--.--,--.--,0,0.000,0.000,0.000,0.000,313.600,377.600,358.400,300.800,0.600,0.600,0.600,0.600,true,true,true,true,true,true,false,false,true,true,false,false,0.08,0.02,0.09,0.00,--.--,0.00,0.33,0.34,0,0,--.--,--.--,--.--,--.--,--.--,0,0,0,0,15.9802384,108.2616682,49PBT 06897 68678,0.7,1.1,277.5,3,14,--.--,--.--,,--.--,--.--,--.--,0,0,--.--,--.--,0,-0.5,-0.1,-13.6,0.0,0.0,-0.7,--.--,--.--,--.--,-0.2,-2.3,-0.6,-1.6,-17.0,263.5,4.3,-22.4,-6.4,33.71,--.--,--.--,0,0,0.0,0.0,0.0,0,0,0,--.--,--.--,--.--
2024-07-16 10:02:43.476,-4.3,-2.9,270,-22.4,-10.6,2.8,2.7,0.0,0.000,0.9,8.1,23.5,18.8,15.537,0.000,0.000,0.000,2.2,00:00:16,3.8,0.9,1,--.--,0,98,--.--,26,0,0003:06:40,0,1,1,24.74,-8.99,25,36,99,1,00H:00M:01S,1,-222.39,1,1,1,24.09,10.90,33,--.--,85,--.--,--:--:--,1,262.54,10:02:43,03:02:43,16/07/2024,--.--,--.--,--.--,--.--,--.--,--.--,--.--,--.--,--.--,--.--,--.--,--.--,0,--.--,--.--,--.--,--.--,--.--,--.--,--.--,--.--,--.--,--.--,--.--,--.--,--.--,--.--,--.--,--.--,0,0.000,0.000,0.000,0.000,313.600,377.600,358.400,300.800,0.600,0.600,0.600,0.600,true,true,true,true,true,true,false,false,true,true,false,false,0.08,0.02,0.09,0.00,--.--,0.00,0.33,0.34,0,0,--.--,--.--,--.--,--.--,--.--,0,0,0,0,15.9802410,108.2616388,49PBT 06894 68679,0.7,1.1,275.6,3,14,--.--,--.--,,--.--,--.--,--.--,0,0,--.--,--.--,0,-0.5,-0.1,-13.6,0.0,0.0,-0.7,--.--,--.--,--.--,-0.2,-2.3,-0.6,-3.4,-4.5,270.3,-8.6,-8.7,-1.6,33.71,--.--,--.--,0,0,0.0,0.0,0.0,0,0,0,--.--,--.--,--.--
2024-07-16 10:02:44.476,-4.1,-3.5,269,42.2,-8.0,-2.5,2.7,0.0,0.000,0.6,8.1,23.5,20.5,16.028,0.000,0.000,0.000,5.2,00:00:17,5.3,1.4,1,--.--,0,97,--.--,29,0,0003:06:40,0,1,1,24.74,-8.99,25,36,99,1,00H:00M:01S,1,-222.39,1,1,1,24.09,10.90,33,--.--,85,--.--,--:--:--,1,262.54,10:02:44,03:02:44,16/07/2024,--.--,--.--,--.--,--.--,--.--,--.--,--.--,--.--,--.--,--.--,--.--,--.--,0,--.--,--.--,--.--,--.--,--.--,--.--,--.--,--.--,--.--,--.--,--.--,--.--,--.--,--.--,--.--,--.--,0,0.000,0.000,0.000,0.000,-396.800,345.600,256.000,294.400,0.600,0.600,0.600,0.600,true,true,true,true,true,true,false,false,true,true,false,false,0.08,0.02,0.09,0.00,--.--,0.00,0.33,0.34,0,0,--.--,--.--,--.--,--.--,--.--,0,0,0,0,15.9802418,108.2616287,49PBT 06893 68679,0.7,1.1,274.5,3,14,--.--,--.--,,--.--,--.--,--.--,0,0,--.--,--.--,0,-0.0,-4.3,-15.3,0.2,-2.6,-0.7,--.--,--.--,--.--,0.0,-2.9,-0.5,-3.4,-4.5,270.3,-8.6,-8.7,-1.6,33.80,--.--,--.--,0,0,0.0,0.0,0.0,0,0,0,--.--,--.--,--.--
2024-07-16 10:02:45.476,3.4,17.2,270,50.0,2.5,-1.6,1.2,0.0,0.000,-0.0,8.1,23.5,20.5,16.413,0.000,0.000,0.000,8.2,00:00:18,8.3,6.6,1,--.--,0,95,--.--,29,0,0003:06:40,0,1,1,24.74,-8.99,25,36,99,1,00H:00M:01S,1,-222.39,1,1,1,24.09,10.90,33,--.--,85,--.--,--:--:--,1,262.54,10:02:45,03:02:45,16/07/2024,--.--,--.--,--.--,--.--,--.--,--.--,--.--,--.--,--.--,--.--,--.--,--.--,0,--.--,--.--,--.--,--.--,--.--,--.--,--.--,--.--,--.--,--.--,--.--,--.--,--.--,--.--,--.--,--.--,0,0.000,0.000,0.000,0.000,-396.800,345.600,256.000,294.400,0.600,0.600,0.600,0.600,true,true,true,true,true,true,false,false,true,true,false,false,0.08,0.02,0.09,0.00,--.--,0.00,0.33,0.34,0,0,--.--,--.--,--.--,--.--,--.--,0,0,0,0,15.9802430,108.2615991,49PBT 06890 68679,0.7,1.1,272.4,3,14,--.--,--.--,,--.--,--.--,--.--,0,0,--.--,--.--,0,-0.0,-4.3,-15.3,0.2,-2.6,-0.7,--.--,--.--,--.--,0.0,-2.9,-0.5,-6.1,5.7,269.6,-9.7,18.0,1.0,33.80,--.--,--.--,0,0,0.0,0.0,0.0,0,0,0,--.--,--.--,--.--
2024-07-16 10:02:46.476,-13.4,-3.0,277,-1.9,0.7,5.1,0.8,0.0,0.000,-0.3,8.4,23.8,20.5,16.260,0.000,0.000,0.000,8.2,00:00:19,9.0,11.5,1,--.--,0,97,--.--,31,0,0003:06:40,0,1,1,24.74,-8.99,25,36,99,1,00H:00M:01S,1,-222.39,1,1,1,24.09,10.90,33,--.--,85,--.--,--:--:--,1,262.54,10:02:46,03:02:46,16/07/2024,--.--,--.--,--.--,--.--,--.--,--.--,--.--,--.--,--.--,--.--,--.--,--.--,0,--.--,--.--,--.--,--.--,--.--,--.--,--.--,--.--,--.--,--.--,--.--,--.--,--.--,--.--,--.--,--.--,0,0.000,0.000,0.000,0.000,320.000,288.000,-377.600,352.000,0.600,0.600,0.600,0.600,true,true,true,true,true,true,false,false,true,true,false,false,0.08,0.02,0.09,0.00,--.--,0.00,0.33,0.34,0,0,--.--,--.--,--.--,--.--,--.--,0,0,0,0,15.9802447,108.2615911,49PBT 06889 68679,0.7,1.1,337.1,3,14,--.--,--.--,,--.--,--.--,--.--,0,0,--.--,--.--,0,0.6,-9.1,-15.6,0.6,-0.0,0.2,--.--,--.--,--.--,0.7,0.1,0.1,-9.1,-3.3,273.7,-40.1,-8.7,6.6,33.88,--.--,--.--,0,0,0.0,0.5,14.2,0,0,4,--.--,--.--,--.--
2024-07-16 10:02:47.476,-5.6,-1.4,271,5.1,25.7,2.3,1.0,0.0,0.000,0.1,8.4,23.8,20.5,15.856,0.000,0.000,0.000,8.2,00:00:20,9.3,9.6,1,--.--,0,99,--.--,32,0,0003:06:40,0,1,1,24.61,-11.27,40,35,99,1,00H:00M:01S,1,-277.32,1,1,1,24.00,11.61,50,--.--,84,--.--,--:--:--,1,278.58,10:02:47,03:02:47,16/07/2024,--.--,--.--,--.--,--.--,--.--,--.--,--.--,--.--,--.--,--.--,--.--,--.--,0,--.--,--.--,--.--,--.--,--.--,--.--,--.--,--.--,--.--,--.--,--.--,--.--,--.--,--.--,--.--,--.--,0,0.000,0.000,0.000,0.000,320.000,288.000,-377.600,352.000,0.600,0.600,0.600,0.600,true,true,true,true,true,true,false,false,true,true,false,false,0.03,0.03,0.11,0.00,--.--,0.00,0.32,0.32,0,0,--.--,--.--,--.--,--.--,--.--,0,0,0,0,15.9802491,108.2615897,49PBT 06889 68680,0.7,1.1,299.5,3,14,--.--,--.--,,--.--,--.--,--.--,0,0,--.--,--.--,0,0.6,-9.1,-15.6,0.6,-0.0,0.2,--.--,--.--,--.--,0.7,0.1,0.1,-6.1,-1.5,273.5,0.1,8.7,10.2,33.88,--.--,--.--,0,0,0.0,0.5,14.2,0,0,4,--.--,--.--,--.--
2024-07-16 10:02:48.476,-6.0,-3.9,274,5.4,-4.4,3.3,0.8,0.0,0.000,0.3,8.4,23.8,20.5,15.970,0.000,0.000,0.000,10.2,00:00:21,10.2,12.1,1,--.--,0,100,--.--,25,0,0003:06:40,0,1,1,24.61,-11.27,40,35,99,1,00H:00M:01S,1,-277.32,1,1,1,24.00,11.61,50,--.--,84,--.--,--:--:--,1,278.58,10:02:48,03:02:48,16/07/2024,--.--,--.--,--.--,--.--,--.--,--.--,--.--,--.--,--.--,--.--,--.--,--.--,0,--.--,--.--,--.--,--.--,--.--,--.--,--.--,--.--,--.--,--.--,--.--,--.--,--.--,--.--,--.--,--.--,0,0.000,0.000,0.000,0.000,320.000,288.000,-377.600,352.000,0.600,0.600,0.600,0.600,true,true,true,true,true,true,false,false,true,true,false,false,0.03,0.03,0.11,0.00,--.--,0.00,0.32,0.32,0,0,--.--,--.--,--.--,--.--,--.--,0,0,0,0,15.9802512,108.2615801,49PBT 06888 68680,0.7,1.1,281.3,3,15,--.--,--.--,,--.--,--.--,--.--,0,0,--.--,--.--,0,0.6,-9.1,-15.6,0.6,-0.0,0.2,--.--,--.--,-15.6,0.1,-0.9,-0.2,-6.1,-1.5,273.5,0.1,8.7,10.2,33.88,--.--,--.--,0,0,0.0,0.5,14.2,0,0,4,--.--,--.--,--.--
2024-07-16 10:02:49.475,-3.9,-1.9,271,5.0,9.8,1.0,0.8,0.0,0.000,-0.0,8.2,23.6,20.8,15.860,0.000,0.000,0.000,10.2,00:00:22,10.7,13.1,1,--.--,0,100,--.--,25,0,0003:06:40,0,1,1,24.61,-11.27,40,35,99,1,00H:00M:01S,1,-277.32,1,1,1,24.00,11.61,50,--.--,84,--.--,--:--:--,1,278.58,10:02:49,03:02:49,16/07/2024,--.--,--.--,--.--,--.--,--.--,--.--,--.--,--.--,--.--,--.--,--.--,--.--,0,--.--,--.--,--.--,--.--,--.--,--.--,--.--,--.--,--.--,--.--,--.--,--.--,--.--,--.--,--.--,--.--,0,0.000,0.000,0.000,0.000,281.600,339.200,339.200,364.800,0.600,0.600,0.600,0.600,true,true,true,true,true,true,false,false,true,true,false,false,0.03,0.03,0.11,0.00,--.--,0.00,0.32,0.32,0,0,--.--,--.--,--.--,--.--,--.--,0,0,0,0,15.9802517,108.2615771,49PBT 06887 68680,0.7,1.1,280.4,3,15,--.--,--.--,,--.--,--.--,--.--,0,0,--.--,--.--,0,1.2,-10.8,-15.4,0.1,-0.9,0.1,--.--,--.--,-15.6,0.1,-0.9,-0.2,-5.0,-3.7,273.5,-0.9,2.7,-2.7,33.96,--.--,--.--,0,0,0.0,0.5,14.2,0,0,4,--.--,--.--,--.--
2024-07-16 10:02:50.476,-4.6,5.1,273,-2.0,0.6,-1.2,0.4,0.0,0.000,-0.1,8.2,23.6,20.8,15.770,0.000,0.000,0.000,10.2,00:00:23,11.6,27.0,1,--.--,0,99,--.--,26,0,0003:06:40,0,1,1,24.61,-11.27,40,35,99,1,00H:00M:01S,1,-277.32,1,1,1,24.00,11.61,50,--.--,84,--.--,--:--:--,1,278.58,10:02:50,03:02:50,16/07/2024,--.--,--.--,--.--,--.--,--.--,--.--,--.--,--.--,--.--,--.--,--.--,--.--,0,--.--,--.--,--.--,--.--,--.--,--.--,--.--,--.--,--.--,--.--,--.--,--.--,--.--,--.--,--.--,--.--,0,0.000,0.000,0.000,0.000,281.600,339.200,339.200,364.800,0.600,0.600,0.600,0.600,true,true,true,true,true,true,false,false,true,true,false,false,0.03,0.03,0.11,0.00,--.--,0.00,0.32,0.32,0,0,--.--,--.--,--.--,--.--,--.--,0,0,0,0,15.9802528,108.2615680,49PBT 06886 68680,0.7,1.1,276.2,3,15,--.--,--.--,,--.--,--.--,--.--,0,0,--.--,--.--,0,1.2,-10.8,-15.4,0.1,-0.9,0.1,--.--,--.--,--.--,0.0,-0.8,0.2,-3.9,7.1,273.5,2.1,6.1,-0.7,33.96,--.--,--.--,0,0,0.0,0.5,14.2,0,0,4,--.--,--.--,--.--
